,A,3,08,,13,19,23,27,28,,48,,,,3.0,1.8,2.0*3A
$GPGSV,3,3,09,48,47,208,38*4E
$GPRMC,203922.2,A,3348.29664,N,11646.79986,W,000.0,054.1,300806,013.1,E,D*18
$GPGGA,203922.2,3348.29664,N,11646.79986,W,2,07,1.8,1679.6,M,-30.8,M,,*5E
$GPGSA,A,3,08,,13,19,23,27,28,,48,,,,3.2,1.8,2.2*3A
$GPGSV,3,1,09,08,38,298,35,10,15,313,00,13,73,128,42,19,36,092,38*76
$GPRMC,203922.4,A,3348.29664,N,11646.79986,W,000.0,054.1,300806,013.1,E,D*1E
$GPGGA,203922.4,3348.29664,N,11646.79986,W,2,07,1.8,1679.6,M,-30.8,M,,*58
$GPGSA,A,3,08,,13,19,23,27,28,,48,,,,3.2,1.8,2.2*3A
$GPGSV,3,2,09,23,36,137,52,27,59,335,46,28,31,228,42,35,42,221,36*7B
$GPRMC,203922.6,A,3348.29664,N,11646.79987,W,000.0,054.1,300806,013.1,E,D*1D
$GPGGA,203922.6,3348.29664,N,11646.79987,W,2,07,1.8,1679.6,M,-30.8,M,,*5B
$GPGSA,A,3,08,,13,19,23,27,28,,48,,,,3.2,1.8,2.2*3A
$GPGSV,3,3,09,48,47,208,38*4E
$GPRMC,203922.8,A,3348.29664,N,11646.79987,W,000.0,054.1,300806,013.1,E,D*13
$GPGGA,203922.8,3348.29664,N,11646.79987,W,2,07,1.8,1679.6,M,-30.8,M,,*55
$GPGSA,A,3,08,,13,19,23,27,28,,48,,,,3.2,1.8,2.2*3A
$GPGSV,3,1,09,08,38,298,35,10,15,313,00,13,73,128,42,19,36,092,38*76
$GPRMC,203923.0,A,3348.29664,N,11646.79987,W,000.0,054.1,300806,013.1,E,D*1A
$GPGGA,203923.0,3348.29664,N,11646.79987,W,2,07,1.8,1679.6,M,-30.8,M,,*5C
$GPGSA,A,3,08,,13,19,23,27,28,,48,,,,3.2,1.8,2.2*3A
$GPGSV,3,2,09,23,36,137,52,27,59,335,47,28,31,228,42,35,42,221,36*7A
$GPRMC,203923.2,A,3348.29307,N,11646.80465,W,000.0,054.1,300806,013.1,E,D*1F
$GPGGA,203923.2,3348.29307,N,11646.80465,W,2,07,1.7,1677.2,M,-30.8,M,,*5C
$GPGSA,A,3,08,,13,19,23,27,28,,48,,,,3.3,1.7,2.3*35
$GPGSV,3,3,09,48,47,208,37*41
$GPRMC,203923.4,A,3348.29307,N,11646.80465,W,000.0,054.1,300806,013.1,E,D*19
$GPGGA,203923.4,3348.29307,N,11646.80465,W,2,07,1.7,1677.2,M,-30.8,M,,*5A
$GPGSA,A,3,08,,13,19,23,27,28,,48,,,,3.3,1.7,2.3*35
$GPGSV,3,1,09,08,38,298,34,10,15,313,00,13,73,128,42,19,36,092,40*78
$GPRMC,203923.6,A,3348.29307,N,11646.80465,W,000.0,054.1,300806,013.1,E,D*1B
$GPGGA,203923.6,3348.29307,N,11646.80465,W,2,07,1.7,1677.2,M,-30.8,M,,*58
$GPGSA,A,3,08,,13,19,23,27,28,,48,,,,3.3,1.7,2.3*35
$GPGSV,3,2,09,23,36,137,52,27,59,335,47,28,31,228,42,35,42,221,36*7A
$GPRMC,203923.8,A,3348.29307,N,11646.80465,W,000.0,054.1,300806,013.1,E,D*15
$GPGGA,203923.8,3348.29307,N,11646.80465,W,2,07,1.7,1677.3,M,-30.8,M,,*57
$GPGSA,A,3,08,,13,19,23,27,28,,48,,,,3.3,1.7,2.3*35
$GPGSV,3,3,09,48,47,208,37*41
$GPRMC,203924.0,A,3348.29307,N,11646.80465,W,000.0,054.1,300806,013.1,E,D*1A
$GPGGA,203924.0,3348.29307,N,11646.80465,W,2,07,1.7,1677.3,M,-30.8,M,,*58
$GPGSA,A,3,08,,13,19,23,27,28,,48,,,,3.3,1.7,2.3*35
$GPGSV,3,1,09,08,38,298,34,10,15,313,00,13,73,128,43,19,36,092,40*79
$GPRMC,203924.2,A,3348.29079,N,11646.80757,W,000.0,054.1,300806,013.1,E,D*10
$GPGGA,203924.2,3348.29079,N,11646.80757,W,2,07,1.8,1664.6,M,-30.8,M,,*5A
$GPGSA,A,3,08,,13,19,23,27,28,,48,,,,3.3,1.8,1.0*3A
$GPGSV,3,2,09,23,36,137,52,27,59,335,46,28,31,228,43,35,42,221,36*7A
$GPRMC,203924.4,A,3348.29079,N,11646.80757,W,000.0,054.1,300806,013.1,E,D*16
$GPGGA,203924.4,3348.29079,N,11646.80757,W,2,07,1.8,1664.6,M,-30.8,M,,*5C
$GPGSA,A,3,08,,13,19,23,27,28,,48,,,,3.3,1.8,1.0*3A
$GPGSV,3,3,09,48,47,208,38*4E
$GPRMC,203924.6,A,3348.29079,N,11646.80757,W,000.0,054.1,300806,013.1,E,D*14
$GPGGA,203924.6,3348.29079,N,11646.80757,W,2,07,1.8,1664.6,M,-30.8,M,,*5E
$GPGSA,A,3,08,,13,19,23,27,28,,48,,,,3.3,1.8,1.0*3A
$GPGSV,3,1,09,08,38,298,34,10,15,313,00,13,73,128,43,19,36,092,40*79
$GPRMC,203924.8,A,3348.29078,N,11646.80757,W,000.0,054.1,300806,013.1,E,D*1B
$GPGGA,203924.8,3348.29078,N,11646.80757,W,2,07,1.8,1664.6,M,-30.8,M,,*51
$GPGSA,A,3,08,,13,19,23,27,28,,48,,,,3.3,1.8,1.0*3A
$GPGSV,3,2,09,23,36,137,52,27,59,335,46,28,31,228,43,35,42,221,36*7A
$GPRMC,203925.0,A,3348.29078,N,11646.80757,W,000.0,054.1,300806,013.1,E,D*12
$GPGGA,203925.0,3348.29078,N,11646.80757,W,2,07,1.8,1664.6,M,-30.8,M,,*58
$GPGSA,A,3,08,,13,19,23,27,28,,48,,,,3.3,1.8,1.0*3A
$GPGSV,3,3,09,48,47,208,37*41
$GPRMC,203925.2,A,3348.28931,N,11646.80957,W,000.0,054.1,300806,013.1,E,D*1B
$GPGGA,203925.2,3348.28931,N,11646.80957,W,2,07,1.9,1657.2,M,-30.8,M,,*54
$GPGSA,A,3,08,,13,19,23,27,28,,48,,,,3.4,1.9,1.2*3E
$GPGSV,3,1,09,08,38,298,34,10,15,313,00,13,73,128,43,19,36,092,41*78
$GPRMC,203925.4,A,3348.28931,N,11646.80957,W,000.0,054.1,300806,013.1,E,D*1D
$GPGGA,203925.4,3348.28931,N,11646.80957,W,2,07,1.9,1657.2,M,-30.8,M,,*52
$GPGSA,A,3,08,,13,19,23,27,28,,48,,,,3.4,1.9,1.2*3E
$GPGSV,3,2,09,23,36,137,52,27,59,335,45,28,31,228,43,35,42,221,35*7A
$GPRMC,203925.6,A,3348.28931,N,11646.80957,W,000.0,054.1,300806,013.1,E,D*1F
$GPGGA,203925.6,3348.28931,N,11646.80957,W,2,07,1.9,1657.2,M,-30.8,M,,*50
$GPGSA,A,3,08,,13,19,23,27,28,,48,,,,3.4,1.9,1.2*3E
$GPGSV,3,3,09,48,47,208,37*41
$GPRMC,203925.8,A,3348.28930,N,11646.80956,W,000.0,054.1,300806,013.1,E,D*11
$GPGGA,203925.8,3348.28930,N,11646.80956,W,2,07,1.9,1657.2,M,-30.8,M,,*5E
$GPGSA,A,3,08,,13,19,23,27,28,,48,,,,3.4,1.9,1.2*3E
$GPGSV,3,1,09,08,38,298,34,10,15,313,00,13,73,128,43,19,36,092,41*78
$GPRMC,203926.0,A,3348.28930,N,11646.80956,W,000.0,054.1,300806,013.1,E,D*1A
$GPGGA,203926.0,3348.28930,N,11646.80956,W,2,07,1.9,1657.2,M,-30.8,M,,*55
$GPGSA,A,3,08,,13,19,23,27,28,,48,,,,3.4,1.9,1.2*3E
$GPGSV,3,2,09,23,36,137,52,27,59,335,45,28,31,228,43,35,42,221,35*7A
$GPRMC,203926.2,A,3348.28837,N,11646.81095,W,000.0,054.1,300806,013.1,E,D*19
$GPGGA,203926.2,3348.28837,N,11646.81095,W,2,07,2.0,1653.8,M,-30.8,M,,*52
$GPGSA,A,3,08,,13,19,23,27,28,,48,,,,3.3,2.0,1.0*31
$GPGSV,3,3,09,48,47,208,38*4E
$GPRMC,203926.4,A,3348.28837,N,11646.81095,W,000.0,054.1,300806,013.1,E,D*1F
$GPGGA,203926.4,3348.28837,N,11646.81095,W,2,07,2.0,1653.8,M,-30.8,M,,*54
$GPGSA,A,3,08,,13,19,23,27,28,,48,,,,3.3,2.0,1.0*31
$GPGSV,3,1,09,08,38,298,33,10,15,313,00,13,73,128,43,19,36,092,42*7C
$GPRMC,203926.6,A,3348.28837,N,11646.81095,W,000.0,054.1,300806,013.1,E,D*1D
$GPGGA,203926.6,3348.28837,N,11646.81095,W,2,07,2.0,1653.8,M,-30.8,M,,*56
$GPGSA,A,3,08,,13,19,23,27,28,,48,,,,3.3,2.0,1.0*31
$GPGSV,3,2,09,23,36,137,52,27,59,335,45,28,31,228,43,35,42,221,35*7A
$GPRMC,203926.8,A,3348.28837,N,11646.81095,W,000.0,054.1,300806,013.1,E,D*13
$GPGGA,203926.8,3348.28837,N,11646.81095,W,2,07,2.0,1653.8,M,-30.8,M,,*58
$GPGSA,A,3,08,,13,19,23,27,28,,48,,,,3.3,2.0,1.0*31
$GPGSV,3,3,09,48,47,208,38*4E
$GPRMC,203927.0,A,3348.28837,N,11646.81095,W,000.0,054.1,300806,013.1,E,D*1A
$GPGGA,203927.0,3348.28837,N,11646.81095,W,2,07,2.0,1653.8,M,-30.8,M,,*51
$GPGSA,A,3,08,,13,19,23,27,28,,48,,,,3.3,2.0,1.0*31
$GPGSV,3,1,09,08,38,298,33,10,15,313,00,13,73,128,43,19,36,092,42*7C
$GPRMC,203927.2,A,3348.28781,N,11646.81204,W,000.0,054.1,300806,013.1,E,D*10
$GPGGA,203927.2,3348.28781,N,11646.81204,W,2,07,2.2,1624.1,M,-30.8,M,,*50
$GPGSA,A,3,08,,13,19,23,27,28,,48,,,,3.7,2.2,1.6*31
$GPGSV,3,2,09,23,36,137,52,27,59,335,44,28,31,228,43,35,42,221,35*7B
$GPRMC,203927.4,A,3348.28781,N,11646.81204,W,000.0,054.1,300806,013.1,E,D*16
$GPGGA,203927.4,3348.28781,N,11646.81204,W,2,07,2.2,1624.1,M,-30.8,M,,*56
$GPGSA,A,3,08,,13,19,23,27,28,,48,,,,3.7,2.2,1.6*31
$GPGSV,3,3,09,48,47,208,38*4E
$GPRMC,203927.6,A,3348.28781,N,11646.81204,W,000.0,054.1,300806,013.1,E,D*14
$GPGGA,203927.6,3348.28781,N,11646.81204,W,2,07,2.2,1624.1,M,-30.8,M,,*54
$GPGSA,A,3,08,,13,19,23,27,28,,48,,,,3.7,2.2,1.6*31
$GPGSV,3,1,09,08,38,298,33,10,15,313,00,13,73,128,43,19,36,092,42*7C
$GPRMC,203927.8,A,3348.28781,N,11646.81204,W,000.0,054.1,300806,013.1,E,D*1A
$GPGGA,203927.8,3348.28781,N,11646.81204,W,2,07,2.2,1624.0,M,-30.8,M,,*5B
$GPGSA,A,3,08,,13,19,23,27,28,,48,,,,3.7,2.2,1.6*31
$GPGSV,3,2,09,23,36,137,52,27,59,335,44,28,31,228,43,35,42,221,35*7B
$GPRMC,203928.0,A,3348.28781,N,11646.81204,W,000.0,054.1,300806,013.1,E,D*1D
$GPGGA,203928.0,3348.28781,N,11646.81204,W,2,07,2.2,1624.0,M,-30.8,M,,*5C
$GPGSA,A,3,08,,13,19,23,27,28,,48,,,,3.7,2.2,1.6*31
$GPGSV,3,3,09,48,47,208,39*4F
$GPRMC,203928.2,A,3348.28731,N,11646.81276,W,000.0,054.1,300806,013.1,E,D*11
$GPGGA,203928.2,3348.28731,N,11646.81276,W,2,07,2.2,1645.6,M,-30.8,M,,*51
$GPGSA,A,3,08,,13,19,23,27,28,,48,,,,3.7,2.2,1.6*31
$GPGSV,3,1,09,08,38,298,33,10,15,313,00,13,73,128,43,19,36,092,43*7D
$GPRMC,203928.4,A,3348.28731,N,11646.81276,W,000.0,054.1,300806,013.1,E,D*17
$GPGGA,203928.4,3348.28731,N,11646.81276,W,2,07,2.2,1645.6,M,-30.8,M,,*57
$GPGSA,A,3,08,,13,19,23,27,28,,48,,,,3.7,2.2,1.6*31
$GPGSV,3,2,09,23,36,137,52,27,59,335,44,28,31,228,43,35,42,221,35*7B
$GPRMC,203928.6,A,3348.28731,N,11646.81276,W,000.0,054.1,300806,013.1,E,D*15
$GPGGA,203928.6,3348.28731,N,11646.81276,W,2,07,2.2,1645.6,M,-30.8,M,,*55
$GPGSA,A,3,08,,13,19,23,27,28,,48,,,,3.7,2.2,1.6*31
$GPGSV,3,3,09,48,47,208,39*4F
$GPRMC,203928.8,A,3348.28731,N,11646.81276,W,000.0,054.1,300806,013.1,E,D*1B
$GPGGA,203928.8,3348.28731,N,11646.81276,W,2,07,2.2,1645.5,M,-30.8,M,,*58
$GPGSA,A,3,08,,13,19,23,27,28,,48,,,,3.7,2.2,1.6*31
$GPGSV,3,1,09,08,38,298,33,10,15,313,00,13,73,128,43,19,36,092,43*7D
$GPRMC,203929.0,A,3348.28730,N,11646.81276,W,000.0,054.1,300806,013.1,E,D*13
$GPGGA,203929.0,3348.28730,N,11646.81276,W,2,07,2.2,1645.5,M,-30.8,M,,*50
$GPGSA,A,3,08,,13,19,23,27,28,,48,,,,3.7,2.2,1.6*31
$GPGSV,3,2,09,23,36,137,52,27,59,335,43,28,31,228,43,35,42,221,34*7D
$GPRMC,203929.2,A,3348.28141,N,11646.82089,W,000.0,054.1,300806,013.1,E,D*10
$GPGGA,203929.2,3348.28141,N,11646.82089,W,2,07,1.7,1659.8,M,-30.8,M,,*55
$GPGSA,A,3,08,,13,19,23,27,28,,48,,,,3.8,1.7,1.9*37
$GPGSV,3,3,09,48,47,208,39*4F
$GPRMC,203929.4,A,3348.28141,N,11646.82090,W,000.0,054.1,300806,013.1,E,D*1E
$GPGGA,203929.4,3348.28141,N,11646.82090,W,2,07,1.7,1659.8,M,-30.8,M,,*5B
$GPGSA,A,3,08,,13,19,23,27,28,,48,,,,3.8,1.7,1.9*37
$GPGSV,3,1,09,08,38,298,00,10,15,313,00,13,73,128,43,19,36,092,43*7D
$GPRMC,203929.6,A,3348.28141,N,11646.82090,W,000.0,054.1,300806,013.1,E,D*1C
$GPGGA,203929.6,3348.28141,N,11646.82090,W,2,07,1.7,1659.8,M,-30.8,M,,*59
$GPGSA,A,3,08,,13,19,23,27,28,,48,,,,3.8,1.7,1.9*37
$GPGSV,3,2,09,23,36,137,52,27,59,335,43,28,31,228,43,35,42,221,34*7D
$GPRMC,203929.8,A,3348.28141,N,11646.82090,W,000.0,054.1,300806,013.1,E,D*12
$GPGGA,203929.8,3348.28141,N,11646.82090,W,2,07,1.7,1659.8,M,-30.8,M,,*57
$GPGSA,A,3,08,,13,19,23,27,28,,48,,,,3.8,1.7,1.9*37
$GPGSV,3,3,09,48,47,208,39*4F
$GPRMC,203930.0,A,3348.28142,N,11646.82090,W,000.0,054.1,300806,013.1,E,D*11
$GPGGA,203930.0,3348.28142,N,11646.82090,W,2,06,1.7,1659.7,M,-30.8,M,,*5A
$GPGSA,A,3,,,13,19,23,27,28,,48,,,,3.8,1.7,1.9*3F
$GPGSV,3,1,09,08,38,298,00,10,15,313,00,13,73,128,43,19,36,092,44*7A
$GPRMC,203930.2,A,3348.28182,N,11646.82084,W,000.0,054.1,300806,013.1,E,D*1A
$GPGGA,203930.2,3348.28182,N,11646.82084,W,2,06,1.8,1672.5,M,-30.8,M,,*55
$GPGSA,A,3,,,13,19,23,27,28,,48,,,,4.4,1.8,2.6*37
$GPGSV,3,2,09,23,36,137,52,27,59,335,44,28,31,228,43,35,42,221,34*7A
$GPRMC,203930.4,A,3348.28182,N,11646.82084,W,000.0,054.1,300806,013.1,E,D*1C
$GPGGA,203930.4,3348.28182,N,11646.82084,W,2,06,1.8,1672.5,M,-30.8,M,,*53
$GPGSA,A,3,,,13,19,23,27,28,,48,,,,4.4,1.8,2.6*37
$GPGSV,3,3,09,48,47,208,38*4E
$GPRMC,203930.6,A,3348.28182,N,11646.82084,W,000.0,054.1,300806,013.1,E,D*1E
$GPGGA,203930.6,3348.28182,N,11646.82084,W,2,06,1.8,1672.5,M,-30.8,M,,*51
$GPGSA,A,3,,,13,19,23,27,28,,48,,,,4.4,1.8,2.6*37
$GPGSV,3,1,09,08,38,298,00,10,15,313,00,13,73,128,43,19,36,092,44*7A
$GPRMC,203930.8,A,3348.28182,N,11646.82084,W,000.0,054.1,300806,013.1,E,D*10
$GPGGA,203930.8,3348.28182,N,11646.82084,W,2,06,1.8,1672.5,M,-30.8,M,,*5F
$GPGSA,A,3,,,13,19,23,27,28,,48,,,,4.4,1.8,2.6*37
$GPGSV,3,2,09,23,36,137,52,27,59,335,44,28,31,228,43,35,42,221,34*7A
$GPRMC,203931.0,A,3348.28182,N,11646.82084,W,000.0,054.1,300806,013.1,E,D*19
$GPGGA,203931.0,3348.28182,N,11646.82084,W,2,06,1.8,1672.5,M,-30.8,M,,*56
$GPGSA,A,3,,,13,19,23,27,28,,48,,,,4.4,1.8,2.6*37
$GPGSV,3,3,09,48,47,208,38*4E
$GPRMC,203931.2,A,3348.28215,N,11646.82081,W,000.0,054.1,300806,013.1,E,D*13
$GPGGA,203931.2,3348.28215,N,11646.82081,W,2,06,1.8,1681.9,M,-30.8,M,,*5C
$GPGSA,A,3,,,13,19,23,27,28,,48,,,,4.4,1.8,2.6*37
$GPGSV,3,1,09,08,38,298,00,10,15,313,00,13,73,128,43,19,36,092,44*7A
$GPRMC,203931.4,A,3348.28214,N,11646.82081,W,000.0,054.1,300806,013.1,E,D*14
$GPGGA,203931.4,3348.28214,N,11646.82081,W,2,06,1.8,1681.9,M,-30.8,M,,*5B
$GPGSA,A,3,,,13,19,23,27,28,,48,,,,4.4,1.8,2.6*37
$GPGSV,3,2,09,23,36,137,52,27,59,335,44,28,31,228,43,35,42,221,34*7A
$GPRMC,203931.6,A,3348.28214,N,11646.82081,W,000.0,054.1,300806,013.1,E,D*16
$GPGGA,203931.6,3348.28214,N,11646.82081,W,2,06,1.8,1681.9,M,-30.8,M,,*59
$GPGSA,A,3,,,13,19,23,27,28,,48,,,,4.4,1.8,2.6*37
$GPGSV,3,3,09,48,47,208,38*4E
$GPRMC,203931.8,A,3348.28214,N,11646.82081,W,000.0,054.1,300806,013.1,E,D*18
$GPGGA,203931.8,3348.28214,N,11646.82081,W,2,06,1.8,1681.9,M,-30.8,M,,*57
$GPGSA,A,3,,,13,19,23,27,28,,48,,,,4.4,1.8,2.6*37
$GPGSV,3,1,09,08,38,298,00,10,15,313,00,13,73,128,43,19,36,092,44*7A
$GPRMC,203932.0,A,3348.28214,N,11646.82081,W,000.0,054.1,300806,013.1,E,D*13
$GPGGA,203932.0,3348.28214,N,11646.82081,W,2,06,1.8,1682.0,M,-30.8,M,,*56
$GPGSA,A,3,,,13,19,23,27,28,,48,,,,4.4,1.8,2.6*37
$GPGSV,3,2,09,23,36,137,52,27,59,335,44,28,31,228,43,35,42,221,33*7D
$GPRMC,203932.2,A,3348.28240,N,11646.82078,W,000.0,054.1,300806,013.1,E,D*16
$GPGGA,203932.2,3348.28240,N,11646.82078,W,2,06,1.8,1687.8,M,-30.8,M,,*5E
$GPGSA,A,3,,,13,19,23,27,28,,48,,,,4.4,1.8,2.6*37
$GPGSV,3,3,09,48,47,208,38*4E
$GPRMC,203932.4,A,3348.28240,N,11646.82078,W,000.0,054.1,300806,013.1,E,D*10
$GPGGA,203932.4,3348.28240,N,11646.82078,W,2,06,1.8,1687.8,M,-30.8,M,,*58
$GPGSA,A,3,,,13,19,23,27,28,,48,,,,4.4,1.8,2.6*37
$GPGSV,3,1,09,08,38,298,00,10,15,313,00,13,73,128,43,19,36,092,44*7A
$GPRMC,203932.6,A,3348.28240,N,11646.82078,W,000.0,054.1,300806,013.1,E,D*12
$GPGGA,203932.6,3348.28240,N,11646.82078,W,2,06,1.8,1687.9,M,-30.8,M,,*5B
$GPGSA,A,3,,,13,19,23,27,28,,48,,,,4.4,1.8,2.6*37
$GPGSV,3,2,09,23,36,137,52,27,59,335,44,28,31,228,43,35,42,221,33*7D
$GPRMC,203932.8,A,3348.28239,N,11646.82078,W,000.0,054.1,300806,013.1,E,D*12
$GPGGA,203932.8,3348.28239,N,11646.82078,W,2,06,1.8,1687.9,M,-30.8,M,,*5B
$GPGSA,A,3,,,13,19,23,27,28,,48,,,,4.4,1.8,2.6*37
$GPGSV,3,3,09,48,47,208,38*4E
$GPRMC,203933.0,A,3348.28239,N,11646.82078,W,000.0,054.1,300806,013.1,E,D*1B
$GPGGA,203933.0,3348.28239,N,11646.82078,W,2,06,1.8,1687.9,M,-30.8,M,,*52
$GPGSA,A,3,,,13,19,23,27,28,,48,,,,4.4,1.8,2.6*37
$GPGSV,3,1,09,08,38,298,00,10,15,313,00,13,73,128,42,19,36,092,44*7B
$GPRMC,203933.2,A,3348.28262,N,11646.82075,W,000.0,054.1,300806,013.1,E,D*1A
$GPGGA,203933.2,3348.28262,N,11646.82075,W,2,06,2.0,1687.9,M,-30.8,M,,*58
$GPGSA,A,3,,,13,19,23,27,28,,48,,,,3.2,2.0,1.0*38
$GPGSV,3,2,09,23,36,137,52,27,59,335,43,28,31,228,43,35,42,221,00*7A
$GPRMC,203933.4,A,3348.28262,N,11646.82075,W,000.0,054.1,300806,013.1,E,D*1C
$GPGGA,203933.4,3348.28262,N,11646.82075,W,2,06,2.0,1687.9,M,-30.8,M,,*5E
$GPGSA,A,3,,,13,19,23,27,28,,48,,,,3.2,2.0,1.0*38
$GPGSV,3,3,09,48,47,208,37*41
$GPRMC,203933.6,A,3348.28262,N,11646.82075,W,000.0,054.1,300806,013.1,E,D*1E
$GPGGA,203933.6,3348.28262,N,11646.82075,W,2,06,2.0,1687.9,M,-30.8,M,,*5C
$GPGSA,A,3,,,13,19,23,27,28,,48,,,,3.2,2.0,1.0*38
$GPGSV,3,1,09,08,38,298,00,10,15,313,00,13,73,128,42,19,36,092,44*7B
$GPRMC,203933.8,A,3348.28261,N,11646.82075,W,000.0,054.1,300806,013.1,E,D*13
$GPGGA,203933.8,3348.28261,N,11646.82075,W,2,06,2.0,1687.9,M,-30.8,M,,*51
$GPGSA,A,3,,,13,19,23,27,28,,48,,,,3.2,2.0,1.0*38
$GPGSV,3,2,09,23,36,137,52,27,59,335,43,28,31,228,43,35,42,221,00*7A
$GPRMC,203934.0,A,3348.28261,N,11646.82075,W,000.0,054.1,300806,013.1,E,D*1C
$GPGGA,203934.0,3348.28261,N,11646.82075,W,2,06,2.0,1687.9,M,-30.8,M,,*5E
$GPGSA,A,3,,,13,19,23,27,28,,48,,,,3.2,2.0,1.0*38
$GPGSV,3,3,09,48,47,208,37*41
$GPRMC,203934.2,A,3348.28279,N,11646.82070,W,000.0,054.1,300806,013.1,E,D*12
$GPGGA,203934.2,3348.28279,N,11646.82070,W,2,06,2.0,1687.9,M,-30.8,M,,*50
$GPGSA,A,3,,,13,19,23,27,28,,48,,,,3.2,2.0,1.0*38
$GPGSV,3,1,09,08,38,298,38,10,15,313,00,13,73,128,42,19,36,092,44*70
$GPRMC,203934.4,A,3348.28278,N,11646.82070,W,000.0,054.1,300806,013.1,E,D*15
$GPGGA,203934.4,3348.28278,N,11646.82070,W,2,06,2.0,1687.9,M,-30.8,M,,*57
$GPGSA,A,3,,,13,19,23,27,28,,48,,,,3.2,2.0,1.0*38
$GPGSV,3,2,09,23,36,137,52,27,59,335,42,28,31,228,43,35,42,221,00*7B
$GPRMC,203934.6,A,3348.28278,N,11646.82070,W,000.0,054.1,300806,013.1,E,D*17
$GPGGA,203934.6,3348.28278,N,11646.82070,W,2,06,2.0,1688.0,M,-30.8,M,,*53
$GPGSA,A,3,,,13,19,23,27,28,,48,,,,3.2,2.0,1.0*38
$GPGSV,3,3,09,48,47,208,37*41
$GPRMC,203934.8,A,3348.28278,N,11646.82070,W,000.0,054.1,300806,013.1,E,D*19
$GPGGA,203934.8,3348.28278,N,11646.82070,W,2,06,2.0,1688.0,M,-30.8,M,,*5D
$GPGSA,A,3,,,13,19,23,27,28,,48,,,,3.2,2.0,1.0*38
$GPGSV,3,1,09,08,38,298,38,10,15,313,00,13,73,128,42,19,36,092,44*70
$GPRMC,203935.0,A,3348.28278,N,11646.82070,W,000.0,054.1,300806,013.1,E,D*10
$GPGGA,203935.0,3348.28278,N,11646.82070,W,2,05,2.0,1688.0,M,-30.8,M,,*57
$GPGSA,A,3,,,,19,23,27,28,,48,,,,3.2,2.0,1.0*3A
$GPGSV,3,2,09,23,36,137,52,27,59,335,41,28,31,228,43,35,42,221,00*78
$GPRMC,203935.2,A,3348.28290,N,11646.82063,W,000.0,054.1,300806,013.1,E,D*16
$GPGGA,203935.2,3348.28290,N,11646.82063,W,2,05,2.0,1688.0,M,-30.8,M,,*51
$GPGSA,A,3,,,,19,23,27,28,,48,,,,3.2,2.0,1.0*3A
$GPGSV,3,3,09,48,47,208,00*45
$GPRMC,203935.4,A,3348.28290,N,11646.82063,W,000.0,054.1,300806,013.1,E,D*10
$GPGGA,203935.4,3348.28290,N,11646.82063,W,2,05,2.0,1688.0,M,-30.8,M,,*57
$GPGSA,A,3,,,,19,23,27,28,,48,,,,3.2,2.0,1.0*3A
$GPGSV,3,1,09,08,38,298,38,10,15,313,00,13,73,128,42,19,36,092,44*70
$GPRMC,203935.6,A,3348.28289,N,11646.82063,W,000.0,054.1,300806,013.1,E,D*1A
$GPGGA,203935.6,3348.28289,N,11646.82063,W,2,05,2.0,1688.0,M,-30.8,M,,*5D
$GPGSA,A,3,,,,19,23,27,28,,48,,,,3.2,2.0,1.0*3A
$GPGSV,3,2,09,23,36,137,52,27,59,335,41,28,31,228,43,35,42,221,00*78
$GPRMC,203935.8,A,3348.28289,N,11646.82062,W,000.0,054.1,300806,013.1,E,D*15
$GPGGA,203935.8,3348.28289,N,11646.82062,W,2,05,2.0,1688.0,M,-30.8,M,,*52
$GPGSA,A,3,,,,19,23,27,28,,48,,,,3.2,2.0,1.0*3A
$GPGSV,3,3,09,48,47,208,00*45
$GPRMC,203936.0,A,3348.28288,N,11646.82062,W,000.0,054.1,300806,013.1,E,D*1F
$GPGGA,203936.0,3348.28288,N,11646.82062,W,2,05,2.0,1688.0,M,-30.8,M,,*58
$GPGSA,A,3,,,,19,23,27,28,,48,,,,3.2,2.0,1.0*3A
$GPGSV,3,1,09,08,38,298,39,10,15,313,00,13,73,128,42,19,36,092,43*76
$GPRMC,203936.2,A,3348.28300,N,11646.82057,W,000.0,054.1,300806,013.1,E,D*1A
$GPGGA,203936.2,3348.28300,N,11646.82057,W,2,05,2.0,1688.0,M,-30.8,M,,*5D
$GPGSA,A,3,,,,19,23,27,28,,48,,,,2.8,2.0,1.0*31
$GPGSV,3,2,09,23,36,137,52,27,59,335,41,28,31,228,42,35,42,221,37*7D
$GPRMC,203936.4,A,3348.28299,N,11646.82057,W,000.0,054.1,300806,013.1,E,D*1D
$GPGGA,203936.4,3348.28299,N,11646.82057,W,2,05,2.0,1688.0,M,-30.8,M,,*5A
$GPGSA,A,3,,,,19,23,27,28,,48,,,,2.8,2.0,1.0*31
$GPGSV,3,3,09,48,47,208,00*45
$GPRMC,203936.6,A,3348.28299,N,11646.82057,W,000.0,054.1,300806,013.1,E,D*1F
$GPGGA,203936.6,3348.28299,N,11646.82057,W,2,05,2.0,1688.0,M,-30.8,M,,*58
$GPGSA,A,3,,,,19,23,27,28,,48,,,,2.8,2.0,1.0*31
$GPGSV,3,1,09,08,38,298,39,10,15,313,00,13,73,128,42,19,36,092,43*76
$GPRMC,203936.8,A,3348.28299,N,11646.82057,W,000.0,054.1,300806,013.1,E,D*11
$GPGGA,203936.8,3348.28299,N,11646.82057,W,2,05,2.0,1688.0,M,-30.8,M,,*56
$GPGSA,A,3,,,,19,23,27,28,,48,,,,2.8,2.0,1.0*31
$GPGSV,3,2,09,23,36,137,52,27,59,335,41,28,31,228,42,35,42,221,37*7D
$GPRMC,203937.0,A,3348.28298,N,11646.82057,W,000.0,054.1,300806,013.1,E,D*19
$GPGGA,203937.0,3348.28298,N,11646.82057,W,2,05,2.0,1688.0,M,-30.8,M,,*5E
$GPGSA,A,3,,,,19,23,27,28,,48,,,,2.8,2.0,1.0*31
$GPGSV,3,3,09,48,47,208,00*45
$GPRMC,203937.2,A,3348.28315,N,11646.82056,W,000.0,054.1,300806,013.1,E,D*1E
$GPGGA,203937.2,3348.28315,N,11646.82056,W,2,05,2.1,1689.4,M,-30.8,M,,*5D
$GPGSA,A,3,,,,19,23,27,28,,48,,,,2.8,2.1,1.0*30
$GPGSV,3,1,09,08,38,298,38,10,15,313,00,13,73,128,43,19,36,092,43*76
$GPRMC,203937.4,A,3348.28315,N,11646.82056,W,000.0,054.1,300806,013.1,E,D*18
$GPGGA,203937.4,3348.28315,N,11646.82056,W,2,05,2.1,1689.4,M,-30.8,M,,*5B
$GPGSA,A,3,,,,19,23,27,28,,48,,,,2.8,2.1,1.0*30
$GPGSV,3,2,09,23,36,137,52,27,59,335,41,28,31,228,41,35,42,221,36*7F
$GPRMC,203937.6,A,3348.28314,N,11646.82056,W,000.0,054.1,300806,013.1,E,D*1B
$GPGGA,203937.6,3348.28314,N,11646.82056,W,2,05,2.1,1689.4,M,-30.8,M,,*58
$GPGSA,A,3,,,,19,23,27,28,,48,,,,2.8,2.1,1.0*30
$GPGSV,3,3,09,48,47,208,00*45
$GPRMC,203937.8,A,3348.28314,N,11646.82056,W,000.0,054.1,300806,013.1,E,D*15
$GPGGA,203937.8,3348.28314,N,11646.82056,W,2,05,2.1,1689.4,M,-30.8,M,,*56
$GPGSA,A,3,,,,19,23,27,28,,48,,,,2.8,2.1,1.0*30
$GPGSV,3,1,09,08,38,298,38,10,15,313,00,13,73,128,43,19,36,092,43*76
$GPRMC,203938.0,A,3348.28314,N,11646.82057,W,000.0,054.1,300806,013.1,E,D*13
$GPGGA,203938.0,3348.28314,N,11646.82057,W,2,05,2.1,1689.4,M,-30.8,M,,*50
$GPGSA,A,3,,,,19,23,27,28,,48,,,,2.8,2.1,1.0*30
$GPGSV,3,2,09,23,36,137,51,27,59,335,40,28,31,228,41,35,42,221,00*78
$GPRMC,203938.2,A,3348.28331,N,11646.82058,W,000.0,054.1,300806,013.1,E,D*19
$GPGGA,203938.2,3348.28331,N,11646.82058,W,2,07,2.2,1687.9,M,-30.8,M,,*58
$GPGSA,A,3,08,,13,19,23,27,28,,48,,,,2.9,2.2,1.0*38
$GPGSV,3,3,09,48,47,208,00*45
$GPRMC,203938.4,A,3348.28331,N,11646.82058,W,000.0,054.1,300806,013.1,E,D*1F
$GPGGA,203938.4,3348.28331,N,11646.82058,W,2,07,2.2,1687.9,M,-30.8,M,,*5E
$GPGSA,A,3,08,,13,19,23,27,28,,48,,,,2.9,2.2,1.0*38
$GPGSV,3,1,09,08,38,298,38,10,15,313,00,13,73,128,43,19,36,092,43*76
$GPRMC,203938.6,A,3348.28331,N,11646.82058,W,000.0,054.1,300806,013.1,E,D*1D
$GPGGA,203938.6,3348.28331,N,11646.82058,W,2,07,2.2,1687.9,M,-30.8,M,,*5C
$GPGSA,A,3,08,,13,19,23,27,28,,48,,,,2.9,2.2,1.0*38
$GPGSV,3,2,09,23,36,137,51,27,59,335,40,28,31,228,41,35,42,221,00*78
$GPRMC,203938.8,A,3348.28331,N,11646.82058,W,000.0,054.1,300806,013.1,E,D*13
$GPGGA,203938.8,3348.28331,N,11646.82058,W,2,07,2.2,1687.9,M,-30.8,M,,*52
$GPGSA,A,3,08,,13,19,23,27,28,,48,,,,2.9,2.2,1.0*38
$GPGSV,3,3,09,48,47,208,00*45
$GPRMC,203939.0,A,3348.28331,N,11646.82057,W,000.0,054.1,300806,013.1,E,D*15
$GPGGA,203939.0,3348.28331,N,11646.82057,W,2,07,2.2,1687.9,M,-30.8,M,,*54
$GPGSA,A,3,08,,13,19,23,27,28,,48,,,,2.9,2.2,1.0*38
$GPGSV,3,1,09,08,38,298,37,10,15,313,00,13,73,128,43,19,36,092,43*79
$GPRMC,203939.2,A,3348.28345,N,11646.82057,W,000.0,054.1,300806,013.1,E,D*14
$GPGGA,203939.2,3348.28345,N,11646.82057,W,2,07,2.2,1683.7,M,-30.8,M,,*5F
$GPGSA,A,3,08,,13,19,23,27,28,,48,,,,2.9,2.2,1.0*38
$GPGSV,3,2,09,23,36,137,51,27,59,335,41,28,31,228,40,35,42,221,00*78
$GPRMC,203939.4,A,3348.28345,N,11646.82057,W,000.0,054.1,300806,013.1,E,D*12
$GPGGA,203939.4,3348.28345,N,11646.82057,W,2,07,2.2,1683.7,M,-30.8,M,,*59
$GPGSA,A,3,08,,13,19,23,27,28,,48,,,,2.9,2.2,1.0*38
$GPGSV,3,3,09,48,47,208,40*41
$GPRMC,203939.6,A,3348.28345,N,11646.82057,W,000.0,054.1,300806,013.1,E,D*10
$GPGGA,203939.6,3348.28345,N,11646.82057,W,2,07,2.2,1683.7,M,-30.8,M,,*5B
$GPGSA,A,3,08,,13,19,23,27,28,,48,,,,2.9,2.2,1.0*38
$GPGSV,3,1,09,08,38,298,37,10,15,313,00,13,73,128,43,19,36,092,43*79
$GPRMC,203939.8,A,3348.28345,N,11646.82057,W,000.0,054.1,300806,013.1,E,D*1E
$GPGGA,203939.8,3348.28345,N,11646.82057,W,2,07,2.2,1683.7,M,-30.8,M,,*55
$GPGSA,A,3,08,,13,19,23,27,28,,48,,,,2.9,2.2,1.0*38
$GPGSV,3,2,09,23,36,137,51,27,59,335,41,28,31,228,40,35,42,221,00*78
$GPRMC,203940.0,A,3348.28345,N,11646.82057,W,000.0,054.1,300806,013.1,E,D*18
$GPGGA,203940.0,3348.28345,N,11646.82057,W,2,07,2.2,1683.7,M,-30.8,M,,*53
$GPGSA,A,3,08,,13,19,23,27,28,,48,,,,2.9,2.2,1.0*38
$GPGSV,3,3,09,48,47,208,39*4F
$GPRMC,203940.2,A,3348.28359,N,11646.82059,W,000.0,054.1,300806,013.1,E,D*19
$GPGGA,203940.2,3348.28359,N,11646.82059,W,2,07,2.3,1680.7,M,-30.8,M,,*50
$GPGSA,A,3,08,,13,19,23,27,28,,48,,,,3.5,2.3,1.8*3C
$GPGSV,3,1,09,08,38,298,37,10,15,313,00,13,73,128,43,19,36,092,42*78
$GPRMC,203940.4,A,3348.28359,N,11646.82059,W,000.0,054.1,300806,013.1,E,D*1F
$GPGGA,203940.4,3348.28359,N,11646.82059,W,2,07,2.3,1680.7,M,-30.8,M,,*56
$GPGSA,A,3,08,,13,19,23,27,28,,48,,,,3.5,2.3,1.8*3C
$GPGSV,3,2,09,23,36,137,51,27,59,335,42,28,31,228,39,35,42,221,00*75
$GPRMC,203940.6,A,3348.28358,N,11646.82059,W,000.0,054.1,300806,013.1,E,D*1C
$GPGGA,203940.6,3348.28358,N,11646.82059,W,2,07,2.3,1680.7,M,-30.8,M,,*55
$GPGSA,A,3,08,,13,19,23,27,28,,48,,,,3.5,2.3,1.8*3C
$GPGSV,3,3,09,48,47,208,39*4F
$GPRMC,203940.8,A,3348.28358,N,11646.82059,W,000.0,054.1,300806,013.1,E,D*12
$GPGGA,203940.8,3348.28358,N,11646.82059,W,2,07,2.3,1680.8,M,-30.8,M,,*54
$GPGSA,A,3,08,,13,19,23,27,28,,48,,,,3.5,2.3,1.8*3C
$GPGSV,3,1,09,08,38,298,37,10,15,313,00,13,73,128,43,19,36,092,42*78
$GPRMC,203941.0,A,3348.28357,N,11646.82059,W,000.0,054.1,300806,013.1,E,D*14
$GPGGA,203941.0,3348.28357,N,11646.82059,W,2,07,2.3,1680.8,M,-30.8,M,,*52
$GPGSA,A,3,08,,13,19,23,27,28,,48,,,,3.5,2.3,1.8*3C
$GPGSV,3,2,09,23,36,137,51,27,59,335,42,28,31,228,38,35,42,221,00*74
$GPRMC,203941.2,A,3348.28374,N,11646.82064,W,000.0,054.1,300806,013.1,E,D*19
$GPGGA,203941.2,3348.28374,N,11646.82064,W,2,07,2.3,1680.8,M,-30.8,M,,*5F
$GPGSA,A,3,08,,13,19,23,27,28,,48,,,,2.8,2.3,1.0*38
$GPGSV,3,3,09,48,47,208,00*45
$GPRMC,203941.4,A,3348.28374,N,11646.82064,W,000.0,054.1,300806,013.1,E,D*1F
$GPGGA,203941.4,3348.28374,N,11646.82064,W,2,07,2.3,1680.8,M,-30.8,M,,*59
$GPGSA,A,3,08,,13,19,23,27,28,,48,,,,2.8,2.3,1.0*38
$GPGSV,3,1,09,08,38,298,37,10,15,313,00,13,73,128,43,19,36,092,41*7B
$GPRMC,203941.6,A,3348.28374,N,11646.82064,W,000.0,054.1,300806,013.1,E,D*1D
$GPGGA,203941.6,3348.28374,N,11646.82064,W,2,07,2.3,1680.8,M,-30.8,M,,*5B
$GPGSA,A,3,08,,13,19,23,27,28,,48,,,,2.8,2.3,1.0*38
$GPGSV,3,2,09,23,36,137,51,27,59,335,42,28,31,228,38,35,42,221,00*74
$GPRMC,203941.8,A,3348.28374,N,11646.82063,W,000.0,054.1,300806,013.1,E,D*14
$GPGGA,203941.8,3348.28374,N,11646.82063,W,2,07,2.3,1680.8,M,-30.8,M,,*52
$GPGSA,A,3,08,,13,19,23,27,28,,48,,,,2.8,2.3,1.0*38
$GPGSV,3,3,09,48,47,208,00*45
$GPRMC,203942.0,A,3348.28374,N,11646.82063,W,000.0,054.1,300806,013.1,E,D*1F
$GPGGA,203942.0,3348.28374,N,11646.82063,W,2,07,2.3,1680.9,M,-30.8,M,,*58
$GPGSA,A,3,08,,13,19,23,27,28,,48,,,,2.8,2.3,1.0*38
$GPGSV,3,1,09,08,38,298,00,10,15,313,00,13,73,128,46,19,36,092,40*7B
$GPRMC,203942.2,A,3348.28389,N,11646.82068,W,000.0,054.1,300806,013.1,E,D*14
$GPGGA,203942.2,3348.28389,N,11646.82068,W,2,07,2.4,1680.9,M,-30.8,M,,*54
$GPGSA,A,3,08,,13,19,23,27,28,,48,,,,2.9,2.4,1.0*3E
$GPGSV,3,2,09,23,36,137,51,27,59,335,41,28,31,228,38,35,42,221,45*76
$GPRMC,203942.4,A,3348.28388,N,11646.82067,W,000.0,054.1,300806,013.1,E,D*1C
$GPGGA,203942.4,3348.28388,N,11646.82067,W,2,07,2.4,1680.9,M,-30.8,M,,*5C
$GPGSA,A,3,08,,13,19,23,27,28,,48,,,,2.9,2.4,1.0*3E
$GPGSV,3,3,09,48,47,208,51*41
$GPRMC,203942.6,A,3348.28388,N,11646.82067,W,000.0,054.1,300806,013.1,E,D*1E
$GPGGA,203942.6,3348.28388,N,11646.82067,W,2,07,2.4,1680.9,M,-30.8,M,,*5E
$GPGSA,A,3,08,,13,19,23,27,28,,48,,,,2.9,2.4,1.0*3E
$GPGSV,3,1,09,08,38,298,00,10,15,313,00,13,73,128,46,19,36,092,40*7B
$GPRMC,203942.8,A,3348.28388,N,11646.82067,W,000.0,054.1,300806,013.1,E,D*10
$GPGGA,203942.8,3348.28388,N,11646.82067,W,2,07,2.4,1680.9,M,-30.8,M,,*50
$GPGSA,A,3,08,,13,19,23,27,28,,48,,,,2.9,2.4,1.0*3E
$GPGSV,3,2,09,23,36,137,51,27,59,335,41,28,31,228,38,35,42,221,45*76
$GPRMC,203943.0,A,3348.28387,N,11646.82067,W,000.0,054.1,300806,013.1,E,D*16
$GPGGA,203943.0,3348.28387,N,11646.82067,W,2,07,2.4,1680.9,M,-30.8,M,,*56
$GPGSA,A,3,08,,13,19,23,27,28,,48,,,,2.9,2.4,1.0*3E
$GPGSV,3,3,09,48,47,208,51*41
$GPRMC,203943.2,A,3348.28399,N,11646.82070,W,000.0,054.1,300806,013.1,E,D*1D
$GPGGA,203943.2,3348.28399,N,11646.82070,W,2,07,2.5,1679.7,M,-30.8,M,,*54
$GPGSA,A,3,08,,13,19,23,27,28,,48,,,,3.0,2.5,1.0*37
$GPGSV,3,1,09,08,38,298,31,10,15,313,00,13,73,128,47,19,36,092,00*7C
$GPRMC,203943.4,A,3348.28399,N,11646.82070,W,000.0,054.1,300806,013.1,E,D*1B
$GPGGA,203943.4,3348.28399,N,11646.82070,W,2,07,2.5,1679.7,M,-30.8,M,,*52
$GPGSA,A,3,08,,13,19,23,27,28,,48,,,,3.0,2.5,1.0*37
$GPGSV,3,2,09,23,36,137,51,27,59,335,44,28,31,228,40,35,42,221,45*7C
$GPRMC,203943.6,A,3348.28398,N,11646.82070,W,000.0,054.1,300806,013.1,E,D*18
$GPGGA,203943.6,3348.28398,N,11646.82070,W,2,07,2.5,1679.7,M,-30.8,M,,*51
$GPGSA,A,3,08,,13,19,23,27,28,,48,,,,3.0,2.5,1.0*37
$GPGSV,3,3,09,48,47,208,51*41
$GPRMC,203943.8,A,3348.28398,N,11646.82069,W,000.0,054.1,300806,013.1,E,D*1E
$GPGGA,203943.8,3348.28398,N,11646.82069,W,2,07,2.5,1679.7,M,-30.8,M,,*57
$GPGSA,A,3,08,,13,19,23,27,28,,48,,,,3.0,2.5,1.0*37
$GPGSV,3,1,09,08,38,298,31,10,15,313,00,13,73,128,47,19,36,092,00*7C
$GPRMC,203944.0,A,3348.28397,N,11646.82069,W,000.0,054.1,300806,013.1,E,D*1E
$GPGGA,203944.0,3348.28397,N,11646.82069,W,2,07,2.5,1679.7,M,-30.8,M,,*57
$GPGSA,A,3,08,,13,19,23,27,28,,48,,,,3.0,2.5,1.0*37
$GPGSV,3,2,09,23,36,137,52,27,59,335,45,28,31,228,42,35,42,221,45*7C
$GPRMC,203944.2,A,3348.28410,N,11646.82073,W,000.0,054.1,300806,013.1,E,D*1F
$GPGGA,203944.2,3348.28410,N,11646.82073,W,2,07,2.2,1678.6,M,-30.8,M,,*51
$GPGSA,A,3,08,,13,19,23,27,28,,48,,,,3.3,2.2,1.5*36
$GPGSV,3,3,09,48,47,208,52*42
$GPRMC,203944.4,A,3348.28411,N,11646.82073,W,000.0,054.1,300806,013.1,E,D*18
$GPGGA,203944.4,3348.28411,N,11646.82073,W,2,07,2.2,1678.6,M,-30.8,M,,*56
$GPGSA,A,3,08,,13,19,23,27,28,,48,,,,3.3,2.2,1.5*36
$GPGSV,3,1,09,08,38,298,31,10,15,313,00,13,73,128,48,19,36,092,00*73
$GPRMC,203944.6,A,3348.28411,N,11646.82073,W,000.0,054.1,300806,013.1,E,D*1A
$GPGGA,203944.6,3348.28411,N,11646.82073,W,2,07,2.2,1678.6,M,-30.8,M,,*54
$GPGSA,A,3,08,,13,19,23,27,28,,48,,,,3.3,2.2,1.5*36
$GPGSV,3,2,09,23,36,137,52,27,59,335,45,28,31,228,42,35,42,221,45*7C
$GPRMC,203944.8,A,3348.28411,N,11646.82073,W,000.0,054.1,300806,013.1,E,D*14
$GPGGA,203944.8,3348.28411,N,11646.82073,W,2,07,2.2,1678.6,M,-30.8,M,,*5A
$GPGSA,A,3,08,,13,19,23,27,28,,48,,,,3.3,2.2,1.5*36
$GPGSV,3,3,09,48,47,208,52*42
$GPRMC,203945.0,A,3348.28411,N,11646.82073,W,000.0,054.1,300806,013.1,E,D*1D
$GPGGA,203945.0,3348.28411,N,11646.82073,W,2,07,2.2,1678.6,M,-30.8,M,,*53
$GPGSA,A,3,08,,13,19,23,27,28,,48,,,,3.3,2.2,1.5*36
$GPGSV,3,1,09,08,38,298,00,10,15,313,00,13,73,128,49,19,36,092,00*70
$GPRMC,203945.2,A,3348.28421,N,11646.82075,W,000.0,054.1,300806,013.1,E,D*1A
$GPGGA,203945.2,3348.28421,N,11646.82075,W,2,07,2.8,1678.6,M,-30.8,M,,*5E
$GPGSA,A,3,08,,13,19,23,27,28,,48,,,,3.8,2.8,1.0*32
$GPGSV,3,2,09,23,36,137,52,27,59,335,45,28,31,228,44,35,42,221,45*7A
$GPRMC,203945.4,A,3348.28421,N,11646.82075,W,000.0,054.1,300806,013.1,E,D*1C
$GPGGA,203945.4,3348.28421,N,11646.82075,W,2,07,2.8,1678.6,M,-30.8,M,,*58
$GPGSA,A,3,08,,13,19,23,27,28,,48,,,,3.8,2.8,1.0*32
$GPGSV,3,3,09,48,47,208,52*42
$GPRMC,203945.6,A,3348.28421,N,11646.82074,W,000.0,054.1,300806,013.1,E,D*1F
$GPGGA,203945.6,3348.28421,N,11646.82074,W,2,07,2.8,1678.5,M,-30.8,M,,*58
$GPGSA,A,3,08,,13,19,23,27,28,,48,,,,3.8,2.8,1.0*32
$GPGSV,3,1,09,08,38,298,00,10,15,313,00,13,73,128,49,19,36,092,00*70
$GPRMC,203945.8,A,3348.28421,N,11646.82074,W,000.0,054.1,300806,013.1,E,D*11
$GPGGA,203945.8,3348.28421,N,11646.82074,W,2,07,2.8,1678.5,M,-30.8,M,,*56
$GPGSA,A,3,08,,13,19,23,27,28,,48,,,,3.8,2.8,1.0*32
$GPGSV,3,2,09,23,36,137,52,27,59,335,45,28,31,228,44,35,42,221,45*7A
$GPRMC,203946.0,A,3348.28422,N,11646.82074,W,000.0,054.1,300806,013.1,E,D*19
$GPGGA,203946.0,3348.28422,N,11646.82074,W,2,07,2.8,1678.5,M,-30.8,M,,*5E
$GPGSA,A,3,08,,13,19,23,27,28,,48,,,,3.8,2.8,1.0*32
$GPGSV,3,3,09,48,47,208,52*42
$GPRMC,203946.2,A,3348.28432,N,11646.82079,W,000.0,054.1,300806,013.1,E,D*17
$GPGGA,203946.2,3348.28432,N,11646.82079,W,2,07,2.3,1677.5,M,-30.8,M,,*54
$GPGSA,A,3,08,,13,19,23,27,28,,48,,,,3.9,2.3,1.4*3C
$GPGSV,3,1,09,08,38,298,34,10,15,313,00,13,73,128,50,19,36,092,00*7F
$GPRMC,203946.4,A,3348.28432,N,11646.82079,W,000.0,054.1,300806,013.1,E,D*11
$GPGGA,203946.4,3348.28432,N,11646.82079,W,2,07,2.3,1677.5,M,-30.8,M,,*52
$GPGSA,A,3,08,,13,19,23,27,28,,48,,,,3.9,2.3,1.4*3C
$GPGSV,3,2,09,23,36,137,52,27,59,335,46,28,31,228,46,35,42,221,45*7B
$GPRMC,203946.6,A,3348.28431,N,11646.82079,W,000.0,054.1,300806,013.1,E,D*10
$GPGGA,203946.6,3348.28431,N,11646.82079,W,2,07,2.3,1677.5,M,-30.8,M,,*53
$GPGSA,A,3,08,,13,19,23,27,28,,48,,,,3.9,2.3,1.4*3C
$GPGSV,3,3,09,48,47,208,52*42
$GPRMC,203946.8,A,3348.28431,N,11646.82079,W,000.0,054.1,300806,013.1,E,D*1E
$GPGGA,203946.8,3348.28431,N,11646.82079,W,2,07,2.3,1677.5,M,-30.8,M,,*5D
$GPGSA,A,3,08,,13,19,23,27,28,,48,,,,3.9,2.3,1.4*3C
$GPGSV,3,1,09,08,38,298,34,10,15,313,00,13,73,128,50,19,36,092,00*7F
$GPRMC,203947.0,A,3348.28431,N,11646.82078,W,000.0,054.1,300806,013.1,E,D*16
$GPGGA,203947.0,3348.28431,N,11646.82078,W,2,07,2.3,1677.5,M,-30.8,M,,*55
$GPGSA,A,3,08,,13,19,23,27,28,,48,,,,3.9,2.3,1.4*3C
$GPGSV,3,2,09,23,36,137,52,27,59,335,47,28,31,228,46,35,42,221,45*7A
$GPRMC,203947.2,A,3348.28444,N,11646.82079,W,000.0,054.1,300806,013.1,E,D*17
$GPGGA,203947.2,3348.28444,N,11646.82079,W,2,07,1.6,1677.0,M,-30.8,M,,*57
$GPGSA,A,3,08,,13,19,23,27,28,,48,,,,3.7,1.6,1.6*36
$GPGSV,3,3,09,48,47,208,52*42
$GPRMC,203947.4,A,3348.28444,N,11646.82079,W,000.0,054.1,300806,013.1,E,D*11
$GPGGA,203947.4,3348.28444,N,11646.82079,W,2,07,1.6,1677.0,M,-30.8,M,,*51
$GPGSA,A,3,08,,13,19,23,27,28,,48,,,,3.7,1.6,1.6*36
$GPGSV,3,1,09,08,38,298,34,10,15,313,00,13,73,128,51,19,36,092,00*7E
$GPRMC,203947.6,A,3348.28444,N,11646.82079,W,000.0,054.1,300806,013.1,E,D*13
$GPGGA,203947.6,3348.28444,N,11646.82079,W,2,07,1.6,1677.0,M,-30.8,M,,*53
$GPGSA,A,3,08,,13,19,23,27,28,,48,,,,3.7,1.6,1.6*36
$GPGSV,3,2,09,23,36,137,52,27,59,335,47,28,31,228,46,35,42,221,45*7A
$GPRMC,203947.8,A,3348.28445,N,11646.82079,W,000.0,054.1,300806,013.1,E,D*1C
$GPGGA,203947.8,3348.28445,N,11646.82079,W,2,07,1.6,1677.0,M,-30.8,M,,*5C
$GPGSA,A,3,08,,13,19,23,27,28,,48,,,,3.7,1.6,1.6*36
$GPGSV,3,3,09,48,47,208,52*42
$GPRMC,203948.0,A,3348.28445,N,11646.82079,W,000.0,054.1,300806,013.1,E,D*1B
$GPGGA,203948.0,3348.28445,N,11646.82079,W,2,07,1.6,1677.0,M,-30.8,M,,*5B
$GPGSA,A,3,08,,13,19,23,27,28,,48,,,,3.7,1.6,1.6*36
$GPGSV,3,1,09,08,38,298,00,10,15,313,00,13,73,128,51,19,36,092,00*79
$GPRMC,203948.2,A,3348.28456,N,11646.82079,W,000.0,054.1,300806,013.1,E,D*1B
$GPGGA,203948.2,3348.28456,N,11646.82079,W,2,07,1.6,1675.9,M,-30.8,M,,*50
$GPGSA,A,3,08,,13,19,23,27,28,,48,,,,3.8,1.6,1.8*37
$GPGSV,3,2,09,23,36,137,52,27,59,335,47,28,31,228,47,35,42,221,45*7B
$GPRMC,203948.4,A,3348.28456,N,11646.82079,W,000.0,054.1,300806,013.1,E,D*1D
$GPGGA,203948.4,3348.28456,N,11646.82079,W,2,07,1.6,1675.9,M,-30.8,M,,*56
$GPGSA,A,3,08,,13,19,23,27,28,,48,,,,3.8,1.6,1.8*37
$GPGSV,3,3,09,48,47,208,52*42
$GPRMC,203948.6,A,3348.28456,N,11646.82079,W,000.0,054.1,300806,013.1,E,D*1F
$GPGGA,203948.6,3348.28456,N,11646.82079,W,2,07,1.6,1675.9,M,-30.8,M,,*54
$GPGSA,A,3,08,,13,19,23,27,28,,48,,,,3.8,1.6,1.8*37
$GPGSV,3,1,09,08,38,298,00,10,15,313,00,13,73,128,51,19,36,092,00*79
$GPRMC,203948.8,A,3348.28456,N,11646.82079,W,000.0,054.1,300806,013.1,E,D*11
$GPGGA,203948.8,3348.28456,N,11646.82079,W,2,07,1.6,1675.9,M,-30.8,M,,*5A
$GPGSA,A,3,08,,13,19,23,27,28,,48,,,,3.8,1.6,1.8*37
$GPGSV,3,2,09,23,36,137,52,27,59,335,47,28,31,228,47,35,42,221,45*7B
$GPRMC,203949.0,A,3348.28456,N,11646.82079,W,000.0,054.1,300806,013.1,E,D*18
$GPGGA,203949.0,3348.28456,N,11646.82079,W,2,07,1.6,1675.9,M,-30.8,M,,*53
$GPGSA,A,3,08,,13,19,23,27,28,,48,,,,3.8,1.6,1.8*37
$GPGSV,3,3,09,48,47,208,52*42
$GPRMC,203949.2,A,3348.28466,N,11646.82080,W,000.3,054.1,300806,013.1,E,D*1C
$GPGGA,203949.2,3348.28466,N,11646.82080,W,2,07,1.6,1675.3,M,-30.8,M,,*5E
$GPGSA,A,3,08,,13,19,23,27,28,,48,,,,3.8,1.6,1.8*37
$GPGSV,3,1,09,08,38,298,00,10,15,313,00,13,73,128,50,19,36,092,42*7E
$GPRMC,203949.4,A,3348.28464,N,11646.82080,W,000.3,054.1,300806,013.1,E,D*18
$GPGGA,203949.4,3348.28464,N,11646.82080,W,2,07,1.6,1675.3,M,-30.8,M,,*5A
$GPGSA,A,3,08,,13,19,23,27,28,,48,,,,3.8,1.6,1.8*37
$GPGSV,3,2,09,23,36,137,51,27,59,335,47,28,31,228,48,35,42,221,45*77
$GPRMC,203949.6,A,3348.28463,N,11646.82080,W,000.3,054.1,300806,013.1,E,D*1D
$GPGGA,203949.6,3348.28463,N,11646.82080,W,2,07,1.6,1675.3,M,-30.8,M,,*5F
$GPGSA,A,3,08,,13,19,23,27,28,,48,,,,3.8,1.6,1.8*37
$GPGSV,3,3,09,48,47,208,52*42
$GPRMC,203949.8,A,3348.28461,N,11646.82081,W,000.3,054.1,300806,013.1,E,D*10
$GPGGA,203949.8,3348.28461,N,11646.82081,W,2,07,1.6,1675.3,M,-30.8,M,,*52
$GPGSA,A,3,08,,13,19,23,27,28,,48,,,,3.8,1.6,1.8*37
$GPGSV,3,1,09,08,38,298,00,10,15,313,00,13,73,128,50,19,36,092,42*7E
$GPRMC,203950.0,A,3348.28460,N,11646.82081,W,000.3,054.1,300806,013.1,E,D*11
$GPGGA,203950.0,3348.28460,N,11646.82081,W,2,07,1.6,1675.3,M,-30.8,M,,*53
$GPGSA,A,3,08,,13,19,23,27,28,,48,,,,3.8,1.6,1.8*37
$GPGSV,3,2,09,23,36,137,51,27,59,335,47,28,31,228,48,35,42,221,46*74
$GPRMC,203950.2,A,3348.28768,N,11646.82080,W,000.0,054.1,300806,013.1,E,D*1A
$GPGGA,203950.2,3348.28768,N,11646.82080,W,2,07,1.5,1675.1,M,-30.8,M,,*5A
$GPGSA,A,3,08,,13,19,23,27,28,,48,,,,3.4,1.5,1.9*39
$GPGSV,3,3,09,48,47,208,52*42
$GPRMC,203950.4,A,3348.28767,N,11646.82080,W,000.0,054.1,300806,013.1,E,D*13
$GPGGA,203950.4,3348.28767,N,11646.82080,W,2,07,1.5,1675.1,M,-30.8,M,,*53
$GPGSA,A,3,08,,13,19,23,27,28,,48,,,,3.4,1.5,1.9*39
$GPGSV,3,1,09,08,38,298,42,10,15,313,00,13,73,128,50,19,36,092,42*78
$GPRMC,203950.6,A,3348.28766,N,11646.82081,W,000.0,054.1,300806,013.1,E,D*11
$GPGGA,203950.6,3348.28766,N,11646.82081,W,2,07,1.5,1675.1,M,-30.8,M,,*51
$GPGSA,A,3,08,,13,19,23,27,28,,48,,,,3.4,1.5,1.9*39
$GPGSV,3,2,09,23,36,137,51,27,59,335,47,28,31,228,48,35,42,221,46*74
$GPRMC,203950.8,A,3348.28765,N,11646.82081,W,000.0,054.1,300806,013.1,E,D*1C
$GPGGA,203950.8,3348.28765,N,11646.82081,W,2,07,1.5,1675.1,M,-30.8,M,,*5C
$GPGSA,A,3,08,,13,19,23,27,28,,48,,,,3.4,1.5,1.9*39
$GPGSV,3,3,09,48,47,208,52*42
$GPRMC,203951.0,A,3348.28764,N,11646.82081,W,000.0,054.1,300806,013.1,E,D*14
$GPGGA,203951.0,3348.28764,N,11646.82081,W,2,07,1.5,1675.1,M,-30.8,M,,*54
$GPGSA,A,3,08,,13,19,23,27,28,,48,,,,3.4,1.5,1.9*39
$GPGSV,3,1,09,08,38,298,43,10,15,313,00,13,73,128,50,19,36,092,42*79
$GPRMC,203951.2,A,3348.28768,N,11646.82080,W,000.0,054.1,300806,013.1,E,D*1B
$GPGGA,203951.2,3348.28768,N,11646.82080,W,2,07,1.5,1674.8,M,-30.8,M,,*53
$GPGSA,A,3,08,,13,19,23,27,28,,48,,,,3.5,1.5,2.1*33
$GPGSV,3,2,09,23,36,137,51,27,59,335,47,28,31,228,48,35,42,221,46*74
$GPRMC,203951.4,A,3348.28767,N,11646.82080,W,000.0,054.1,300806,013.1,E,D*12
$GPGGA,203951.4,3348.28767,N,11646.82080,W,2,07,1.5,1674.8,M,-30.8,M,,*5A
$GPGSA,A,3,08,,13,19,23,27,28,,48,,,,3.5,1.5,2.1*33
$GPGSV,3,3,09,48,47,208,51*41
$GPRMC,203951.6,A,3348.28766,N,11646.82080,W,000.0,054.1,300806,013.1,E,D*11
$GPGGA,203951.6,3348.28766,N,11646.82080,W,2,07,1.5,1674.7,M,-30.8,M,,*56
$GPGSA,A,3,08,,13,19,23,27,28,,48,,,,3.5,1.5,2.1*33
$GPGSV,3,1,09,08,38,298,43,10,15,313,00,13,73,128,50,19,36,092,42*79
$GPRMC,203951.8,A,3348.28766,N,11646.82080,W,000.0,054.1,300806,013.1,E,D*1F
$GPGGA,203951.8,3348.28766,N,11646.82080,W,2,07,1.5,1674.7,M,-30.8,M,,*58
$GPGSA,A,3,08,,13,19,23,27,28,,48,,,,3.5,1.5,2.1*33
$GPGSV,3,2,09,23,36,137,51,27,59,335,47,28,31,228,48,35,42,221,46*74
$GPRMC,203952.0,A,3348.28765,N,11646.82081,W,000.0,054.1,300806,013.1,E,D*16
$GPGGA,203952.0,3348.28765,N,11646.82081,W,2,07,1.5,1674.7,M,-30.8,M,,*51
$GPGSA,A,3,08,,13,19,23,27,28,,48,,,,3.5,1.5,2.1*33
$GPGSV,3,3,09,48,47,208,52*42
$GPRMC,203952.2,A,3348.28773,N,11646.82068,W,000.3,187.6,300806,013.1,E,D*1F
$GPGGA,203952.2,3348.28773,N,11646.82068,W,2,07,1.5,1674.2,M,-30.8,M,,*56
$GPGSA,A,3,08,,13,19,23,27,28,,48,,,,3.4,1.5,2.2*31
$GPGSV,3,1,09,08,38,298,42,10,15,313,00,13,73,128,51,19,36,092,43*78
$GPRMC,203952.4,A,3348.28771,N,11646.82069,W,000.3,187.6,300806,013.1,E,D*1A
$GPGGA,203952.4,3348.28771,N,11646.82069,W,2,07,1.5,1674.2,M,-30.8,M,,*53
$GPGSA,A,3,08,,13,19,23,27,28,,48,,,,3.4,1.5,2.2*31
$GPGSV,3,2,09,23,36,137,51,27,59,335,47,28,31,228,48,35,42,221,46*74
$GPRMC,203952.6,A,3348.28769,N,11646.82069,W,000.3,187.6,300806,013.1,E,D*11
$GPGGA,203952.6,3348.28769,N,11646.82069,W,2,07,1.5,1674.2,M,-30.8,M,,*58
$GPGSA,A,3,08,,13,19,23,27,28,,48,,,,3.4,1.5,2.2*31
$GPGSV,3,3,09,48,47,208,52*42
$GPRMC,203952.8,A,3348.28767,N,11646.82069,W,000.3,187.6,300806,013.1,E,D*11
$GPGGA,203952.8,3348.28767,N,11646.82069,W,2,07,1.5,1674.2,M,-30.8,M,,*58
$GPGSA,A,3,08,,13,19,23,27,28,,48,,,,3.4,1.5,2.2*31
$GPGSV,3,1,09,08,38,298,42,10,15,313,00,13,73,128,51,19,36,092,43*78
$GPRMC,203953.0,A,3348.28765,N,11646.82070,W,000.3,187.6,300806,013.1,E,D*12
$GPGGA,203953.0,3348.28765,N,11646.82070,W,2,07,1.5,1674.1,M,-30.8,M,,*58
$GPGSA,A,3,08,,13,19,23,27,28,,48,,,,3.4,1.5,2.2*31
$GPGSV,3,2,09,23,36,137,51,27,59,335,46,28,31,228,47,35,42,221,46*7A
$GPRMC,203953.2,A,3348.28800,N,11646.82055,W,000.0,187.6,300806,013.1,E,D*18
$GPGGA,203953.2,3348.28800,N,11646.82055,W,2,07,1.9,1673.6,M,-30.8,M,,*5D
$GPGSA,A,3,08,,13,19,23,27,28,,48,,,,3.9,1.9,2.6*34
$GPGSV,3,3,09,48,47,208,52*42
$GPRMC,203953.4,A,3348.28797,N,11646.82055,W,000.0,187.6,300806,013.1,E,D*1F
$GPGGA,203953.4,3348.28797,N,11646.82055,W,2,07,1.9,1673.7,M,-30.8,M,,*5B
$GPGSA,A,3,08,,13,19,23,27,28,,48,,,,3.9,1.9,2.6*34
$GPGSV,3,1,09,08,38,298,41,10,15,313,00,13,73,128,51,19,36,092,42*7A
$GPRMC,203953.6,A,3348.28795,N,11646.82055,W,000.0,187.6,300806,013.1,E,D*1F
$GPGGA,203953.6,3348.28795,N,11646.82055,W,2,07,1.9,1673.7,M,-30.8,M,,*5B
$GPGSA,A,3,08,,13,19,23,27,28,,48,,,,3.9,1.9,2.6*34
$GPGSV,3,2,09,23,36,137,51,27,59,335,46,28,31,228,47,35,42,221,46*7A
$GPRMC,203953.8,A,3348.28792,N,11646.82056,W,000.0,187.6,300806,013.1,E,D*15
$GPGGA,203953.8,3348.28792,N,11646.82056,W,2,07,1.9,1673.7,M,-30.8,M,,*51
$GPGSA,A,3,08,,13,19,23,27,28,,48,,,,3.9,1.9,2.6*34
$GPGSV,3,3,09,48,47,208,52*42
$GPRMC,203954.0,A,3348.28789,N,11646.82056,W,000.0,187.6,300806,013.1,E,D*10
$GPGGA,203954.0,3348.28789,N,11646.82056,W,2,07,1.9,1673.7,M,-30.8,M,,*54
$GPGSA,A,3,08,,13,19,23,27,28,,48,,,,3.9,1.9,2.6*34
$GPGSV,3,1,09,08,38,298,41,10,15,313,00,13,73,128,50,19,36,092,43*7A
$GPRMC,203954.2,A,3348.28801,N,11646.82054,W,000.4,187.6,300806,013.1,E,D*1B
$GPGGA,203954.2,3348.28801,N,11646.82054,W,2,07,1.8,1604.0,M,-30.8,M,,*5D
$GPGSA,A,3,08,,13,19,23,27,28,,48,,,,3.8,1.8,2.7*35
$GPGSV,3,2,09,23,36,137,51,27,59,335,47,28,31,228,48,35,42,221,46*74
$GPRMC,203954.4,A,3348.28799,N,11646.82055,W,000.4,187.6,300806,013.1,E,D*12
$GPGGA,203954.4,3348.28799,N,11646.82055,W,2,07,1.8,1604.0,M,-30.8,M,,*54
$GPGSA,A,3,08,,13,19,23,27,28,,48,,,,3.8,1.8,2.7*35
$GPGSV,3,3,09,48,47,208,52*42
$GPRMC,203954.6,A,3348.28797,N,11646.82055,W,000.4,187.6,300806,013.1,E,D*1E
$GPGGA,203954.6,3348.28797,N,11646.82055,W,2,07,1.8,1604.0,M,-30.8,M,,*58
$GPGSA,A,3,08,,13,19,23,27,28,,48,,,,3.8,1.8,2.7*35
$GPGSV,3,1,09,08,39,299,41,10,15,313,00,13,73,128,50,19,36,092,43*7A
$GPRMC,203954.8,A,3348.28795,N,11646.82055,W,000.4,187.6,300806,013.1,E,D*12
$GPGGA,203954.8,3348.28795,N,11646.82055,W,2,07,1.8,1604.0,M,-30.8,M,,*54
$GPGSA,A,3,08,,13,19,23,27,28,,48,,,,3.8,1.8,2.7*35
$GPGSV,3,2,09,23,36,137,51,27,59,335,47,28,31,228,48,35,42,221,46*74
$GPRMC,203955.0,A,3348.28793,N,11646.82056,W,000.4,187.6,300806,013.1,E,D*1E
$GPGGA,203955.0,3348.28793,N,11646.82056,W,2,07,1.8,1604.0,M,-30.8,M,,*58
$GPGSA,A,3,08,,13,19,23,27,28,,48,,,,3.8,1.8,2.7*35
$GPGSV,3,3,09,48,47,208,52*42
$GPRMC,203955.2,A,3348.28827,N,11646.82018,W,000.7,191.5,300806,013.1,E,D*11
$GPGGA,203955.2,3348.28827,N,11646.82018,W,2,07,1.5,1609.8,M,-30.8,M,,*58
$GPGSA,A,3,08,,13,19,23,27,28,,48,,,,3.4,1.5,2.7*34
$GPGSV,3,1,09,08,39,299,40,10,15,313,00,13,73,128,50,19,36,092,43*7B
$GPRMC,203955.4,A,3348.28823,N,11646.82019,W,000.7,191.5,300806,013.1,E,D*12
$GPGGA,203955.4,3348.28823,N,11646.82019,W,2,07,1.5,1609.8,M,-30.8,M,,*5B
$GPGSA,A,3,08,,13,19,23,27,28,,48,,,,3.4,1.5,2.7*34
$GPGSV,3,2,09,23,36,137,51,27,59,335,48,28,31,228,48,35,42,221,45*78
$GPRMC,203955.6,A,3348.28819,N,11646.82020,W,000.7,191.5,300806,013.1,E,D*13
$GPGGA,203955.6,3348.28819,N,11646.82020,W,2,07,1.5,1609.8,M,-30.8,M,,*5A
$GPGSA,A,3,08,,13,19,23,27,28,,48,,,,3.4,1.5,2.7*34
$GPGSV,3,3,09,48,47,208,52*42
$GPRMC,203955.8,A,3348.28815,N,11646.82021,W,000.7,191.5,300806,013.1,E,D*10
$GPGGA,203955.8,3348.28815,N,11646.82021,W,2,07,1.5,1609.8,M,-30.8,M,,*59
$GPGSA,A,3,08,,13,19,23,27,28,,48,,,,3.4,1.5,2.7*34
$GPGSV,3,1,09,08,39,299,40,10,15,313,00,13,73,128,50,19,36,092,43*7B
$GPRMC,203956.0,A,3348.28811,N,11646.82021,W,000.7,191.5,300806,013.1,E,D*1F
$GPGGA,203956.0,3348.28811,N,11646.82021,W,2,07,1.5,1609.8,M,-30.8,M,,*56
$GPGSA,A,3,08,,13,19,23,27,28,,48,,,,3.4,1.5,2.7*34
$GPGSV,3,2,09,23,36,137,51,27,59,335,48,28,31,228,48,35,42,221,45*78
$GPRMC,203956.2,A,3348.28821,N,11646.82016,W,000.8,190.5,300806,013.1,E,D*14
$GPGGA,203956.2,3348.28821,N,11646.82016,W,2,07,1.5,1619.7,M,-30.8,M,,*5D
$GPGSA,A,3,08,,13,19,23,27,28,,48,,,,3.5,1.5,2.8*3A
$GPGSV,3,3,09,48,47,208,52*42
$GPRMC,203956.4,A,3348.28816,N,11646.82017,W,000.8,190.5,300806,013.1,E,D*17
$GPGGA,203956.4,3348.28816,N,11646.82017,W,2,07,1.5,1619.7,M,-30.8,M,,*5E
$GPGSA,A,3,08,,13,19,23,27,28,,48,,,,3.5,1.5,2.8*3A
$GPGSV,3,1,09,08,39,299,39,10,15,313,00,13,73,128,49,19,36,092,44*7A
$GPRMC,203956.6,A,3348.28812,N,11646.82018,W,000.8,190.5,300806,013.1,E,D*1E
$GPGGA,203956.6,3348.28812,N,11646.82018,W,2,07,1.5,1619.7,M,-30.8,M,,*57
$GPGSA,A,3,08,,13,19,23,27,28,,48,,,,3.5,1.5,2.8*3A
$GPGSV,3,2,09,23,36,137,51,27,59,335,48,28,31,228,48,35,42,221,45*78
$GPRMC,203956.8,A,3348.28807,N,11646.82019,W,000.8,190.5,300806,013.1,E,D*15
$GPGGA,203956.8,3348.28807,N,11646.82019,W,2,07,1.5,1619.7,M,-30.8,M,,*5C
$GPGSA,A,3,08,,13,19,23,27,28,,48,,,,3.5,1.5,2.8*3A
$GPGSV,3,3,09,48,47,208,52*42
$GPRMC,203957.0,A,3348.28803,N,11646.82020,W,000.8,190.5,300806,013.1,E,D*12
$GPGGA,203957.0,3348.28803,N,11646.82020,W,2,07,1.5,1619.7,M,-30.8,M,,*5B
$GPGSA,A,3,08,,13,19,23,27,28,,48,,,,3.5,1.5,2.8*3A
$GPGSV,3,1,09,08,39,299,39,10,15,313,00,13,73,128,49,19,36,092,45*7B
$GPRMC,203957.2,A,3348.28820,N,11646.82010,W,000.7,189.2,300806,013.1,E,D*12
$GPGGA,203957.2,3348.28820,N,11646.82010,W,2,07,1.5,1621.5,M,-30.8,M,,*52
$GPGSA,A,3,08,,13,19,23,27,28,,48,,,,3.4,1.5,2.8*3B
$GPGSV,3,2,09,23,36,137,50,27,59,335,49,28,31,228,48,35,42,221,45*78
$GPRMC,203957.4,A,3348.28816,N,11646.82011,W,000.7,189.2,300806,013.1,E,D*10
$GPGGA,203957.4,3348.28816,N,11646.82011,W,2,07,1.5,1621.5,M,-30.8,M,,*50
$GPGSA,A,3,08,,13,19,23,27,28,,48,,,,3.4,1.5,2.8*3B
$GPGSV,3,3,09,48,47,208,52*42
$GPRMC,203957.6,A,3348.28812,N,11646.82012,W,000.7,189.2,300806,013.1,E,D*15
$GPGGA,203957.6,3348.28812,N,11646.82012,W,2,07,1.5,1621.5,M,-30.8,M,,*55
$GPGSA,A,3,08,,13,19,23,27,28,,48,,,,3.4,1.5,2.8*3B
$GPGSV,3,1,09,08,39,299,39,10,15,313,00,13,73,128,49,19,36,092,45*7B
$GPRMC,203957.8,A,3348.28808,N,11646.82013,W,000.7,189.2,300806,013.1,E,D*11
$GPGGA,203957.8,3348.28808,N,11646.82013,W,2,07,1.5,1621.5,M,-30.8,M,,*51
$GPGSA,A,3,08,,13,19,23,27,28,,48,,,,3.4,1.5,2.8*3B
$GPGSV,3,2,09,23,36,137,50,27,59,335,49,28,31,228,48,35,42,221,45*78
$GPRMC,203958.0,A,3348.28804,N,11646.82014,W,000.7,189.2,300806,013.1,E,D*1D
$GPGGA,203958.0,3348.28804,N,11646.82014,W,2,07,1.5,1621.5,M,-30.8,M,,*5D
$GPGSA,A,3,08,,13,19,23,27,28,,48,,,,3.4,1.5,2.8*3B
$GPGSV,3,3,09,48,47,208,52*42
$GPRMC,203958.2,A,3348.28823,N,11646.82003,W,000.7,188.2,300806,013.1,E,D*1D
$GPGGA,203958.2,3348.28823,N,11646.82003,W,2,07,1.5,1621.4,M,-30.8,M,,*5D
$GPGSA,A,3,08,,13,19,23,27,28,,48,,,,3.4,1.5,2.8*3B
$GPGSV,3,1,09,08,39,299,38,10,15,313,00,13,73,128,49,19,36,092,46*79
$GPRMC,203958.4,A,3348.28819,N,11646.82004,W,000.7,188.2,300806,013.1,E,D*15
$GPGGA,203958.4,3348.28819,N,11646.82004,W,2,07,1.5,1621.4,M,-30.8,M,,*55
$GPGSA,A,3,08,,13,19,23,27,28,,48,,,,3.4,1.5,2.8*3B
$GPGSV,3,2,09,23,36,137,50,27,59,335,49,28,31,228,48,35,42,221,44*79
$GPRMC,203958.6,A,3348.28815,N,11646.82004,W,000.7,188.2,300806,013.1,E,D*1B
$GPGGA,203958.6,3348.28815,N,11646.82004,W,2,07,1.5,1621.4,M,-30.8,M,,*5B
$GPGSA,A,3,08,,13,19,23,27,28,,48,,,,3.4,1.5,2.8*3B
$GPGSV,3,3,09,48,47,208,52*42
$GPRMC,203958.8,A,3348.28811,N,11646.82005,W,000.7,188.2,300806,013.1,E,D*10
$GPGGA,203958.8,3348.28811,N,11646.82005,W,2,07,1.5,1621.4,M,-30.8,M,,*50
$GPGSA,A,3,08,,13,19,23,27,28,,48,,,,3.4,1.5,2.8*3B
$GPGSV,3,1,09,08,39,299,38,10,15,313,00,13,73,128,49,19,36,092,46*79
$GPRMC,203959.0,A,3348.28808,N,11646.82005,W,000.7,188.2,300806,013.1,E,D*11
$GPGGA,203959.0,3348.28808,N,11646.82005,W,2,07,1.5,1621.4,M,-30.8,M,,*51
$GPGSA,A,3,08,,13,19,23,27,28,,48,,,,3.4,1.5,2.8*3B
$GPGSV,3,2,09,23,36,137,50,27,59,335,49,28,31,228,49,35,42,221,44*78
$GPRMC,203959.2,A,3348.28826,N,11646.81993,W,000.7,187.6,300806,013.1,E,D*11
$GPGGA,203959.2,3348.28826,N,11646.81993,W,2,07,1.5,1621.0,M,-30.8,M,,*5E
$GPGSA,A,3,08,,13,19,23,27,28,,48,,,,3.5,1.5,3.0*33
$GPGSV,3,3,09,48,47,208,51*41
$GPRMC,203959.4,A,3348.28823,N,11646.81993,W,000.7,187.6,300806,013.1,E,D*12
$GPGGA,203959.4,3348.28823,N,11646.81993,W,2,07,1.5,1621.0,M,-30.8,M,,*5D
$GPGSA,A,3,08,,13,19,23,27,28,,48,,,,3.5,1.5,3.0*33
$GPGSV,3,1,09,08,39,299,38,10,15,313,00,13,73,128,49,19,36,092,46*79
$GPRMC,203959.6,A,3348.28819,N,11646.81994,W,000.7,187.6,300806,013.1,E,D*1E
$GPGGA,203959.6,3348.28819,N,11646.81994,W,2,07,1.5,1621.1,M,-30.8,M,,*50
$GPGSA,A,3,08,,13,19,23,27,28,,48,,,,3.5,1.5,3.0*33
$GPGSV,3,2,09,23,36,137,50,27,59,335,49,28,31,228,49,35,42,221,44*78
$GPRMC,203959.8,A,3348.28815,N,11646.81994,W,000.7,187.6,300806,013.1,E,D*1C
$GPGGA,203959.8,3348.28815,N,11646.81994,W,2,07,1.5,1621.1,M,-30.8,M,,*52
$GPGSA,A,3,08,,13,19,23,27,28,,48,,,,3.5,1.5,3.0*33
$GPGSV,3,3,09,48,47,208,51*41
$GPRMC,204000.0,A,3348.28812,N,11646.81995,W,000.7,187.6,300806,013.1,E,D*10
$GPGGA,204000.0,3348.28812,N,11646.81995,W,2,07,1.5,1621.1,M,-30.8,M,,*5E
$GPGSA,A,3,08,,13,19,23,27,28,,48,,,,3.5,1.5,3.0*33
$GPGSV,3,1,09,08,39,299,41,10,15,313,00,13,73,128,49,19,36,092,47*76
$GPRMC,204000.2,A,3348.28829,N,11646.81982,W,000.6,185.6,300806,013.1,E,D*1F
$GPGGA,204000.2,3348.28829,N,11646.81982,W,2,07,1.5,1622.0,M,-30.8,M,,*50
$GPGSA,A,3,08,,13,19,23,27,28,,48,,,,3.4,1.5,3.0*32
$GPGSV,3,2,09,23,36,137,50,27,59,335,49,28,31,228,48,35,42,221,44*79
$GPRMC,204000.4,A,3348.28826,N,11646.81982,W,000.6,185.6,300806,013.1,E,D*16
$GPGGA,204000.4,3348.28826,N,11646.81982,W,2,07,1.5,1622.0,M,-30.8,M,,*59
$GPGSA,A,3,08,,13,19,23,27,28,,48,,,,3.4,1.5,3.0*32
$GPGSV,3,3,09,48,47,208,51*41
$GPRMC,204000.6,A,3348.28823,N,11646.81983,W,000.6,185.6,300806,013.1,E,D*10
$GPGGA,204000.6,3348.28823,N,11646.81983,W,2,07,1.5,1622.0,M,-30.8,M,,*5F
$GPGSA,A,3,08,,13,19,23,27,28,,48,,,,3.4,1.5,3.0*32
$GPGSV,3,1,09,08,39,299,41,10,15,313,00,13,73,128,49,19,36,092,47*76
$GPRMC,204000.8,A,3348.28820,N,11646.81983,W,000.6,185.6,300806,013.1,E,D*1D
$GPGGA,204000.8,3348.28820,N,11646.81983,W,2,07,1.5,1622.0,M,-30.8,M,,*52
$GPGSA,A,3,08,,13,19,23,27,28,,48,,,,3.4,1.5,3.0*32
$GPGSV,3,2,09,23,36,137,50,27,59,335,49,28,31,228,48,35,42,221,44*79
$GPRMC,204001.0,A,3348.28816,N,11646.81983,W,000.6,185.6,300806,013.1,E,D*11
$GPGGA,204001.0,3348.28816,N,11646.81983,W,2,07,1.5,1622.0,M,-30.8,M,,*5E
$GPGSA,A,3,08,,13,19,23,27,28,,48,,,,3.4,1.5,3.0*32
$GPGSV,3,3,09,48,47,208,51*41
$GPRMC,204001.2,A,3348.28836,N,11646.81968,W,000.5,183.7,300806,013.1,E,D*10
$GPGGA,204001.2,3348.28836,N,11646.81968,W,2,07,1.4,1623.1,M,-30.8,M,,*5A
$GPGSA,A,3,08,,13,19,23,27,28,,48,,,,3.3,1.4,3.0*34
$GPGSV,3,1,09,08,39,299,43,10,15,313,00,13,73,128,50,19,36,092,47*7C
$GPRMC,204001.4,A,3348.28833,N,11646.81968,W,000.5,183.7,300806,013.1,E,D*13
$GPGGA,204001.4,3348.28833,N,11646.81968,W,2,07,1.4,1623.1,M,-30.8,M,,*59
$GPGSA,A,3,08,,13,19,23,27,28,,48,,,,3.3,1.4,3.0*34
$GPGSV,3,2,09,23,36,137,50,27,59,335,50,28,31,228,48,35,42,221,44*71
$GPRMC,204001.6,A,3348.28830,N,11646.81969,W,000.5,183.7,300806,013.1,E,D*13
$GPGGA,204001.6,3348.28830,N,11646.81969,W,2,07,1.4,1623.1,M,-30.8,M,,*59
$GPGSA,A,3,08,,13,19,23,27,28,,48,,,,3.3,1.4,3.0*34
$GPGSV,3,3,09,48,47,208,51*41
$GPRMC,204001.8,A,3348.28827,N,11646.81969,W,000.5,183.7,300806,013.1,E,D*1B
$GPGGA,204001.8,3348.28827,N,11646.81969,W,2,07,1.4,1623.1,M,-30.8,M,,*51
$GPGSA,A,3,08,,13,19,23,27,28,,48,,,,3.3,1.4,3.0*34
$GPGSV,3,1,09,08,39,299,43,10,15,313,00,13,73,128,50,19,36,092,47*7C
$GPRMC,204002.0,A,3348.28825,N,11646.81969,W,000.5,183.7,300806,013.1,E,D*12
$GPGGA,204002.0,3348.28825,N,11646.81969,W,2,07,1.4,1623.1,M,-30.8,M,,*58
$GPGSA,A,3,08,,13,19,23,27,28,,48,,,,3.3,1.4,3.0*34
$GPGSV,3,2,09,23,36,137,49,27,59,335,50,28,31,228,48,35,42,221,44*79
$GPRMC,204002.2,A,3348.28841,N,11646.81958,W,000.5,182.3,300806,013.1,E,D*15
$GPGGA,204002.2,3348.28841,N,11646.81958,W,2,07,1.4,1622.7,M,-30.8,M,,*5D
$GPGSA,A,3,08,,13,19,23,27,28,,48,,,,3.3,1.4,3.0*34
$GPGSV,3,3,09,48,47,208,50*40
$GPRMC,204002.4,A,3348.28838,N,11646.81958,W,000.5,182.3,300806,013.1,E,D*1D
$GPGGA,204002.4,3348.28838,N,11646.81958,W,2,07,1.4,1622.8,M,-30.8,M,,*5A
$GPGSA,A,3,08,,13,19,23,27,28,,48,,,,3.3,1.4,3.0*34
$GPGSV,3,1,09,08,39,299,43,10,16,312,00,13,73,128,50,19,36,092,47*7E
$GPRMC,204002.6,A,3348.28835,N,11646.81958,W,000.5,182.3,300806,013.1,E,D*12
$GPGGA,204002.6,3348.28835,N,11646.81958,W,2,07,1.4,1622.8,M,-30.8,M,,*55
$GPGSA,A,3,08,,13,19,23,27,28,,48,,,,3.3,1.4,3.0*34
$GPGSV,3,2,09,23,36,137,49,27,59,335,50,28,31,228,48,35,42,221,44*79
$GPRMC,204002.8,A,3348.28832,N,11646.81958,W,000.5,182.3,300806,013.1,E,D*1B
$GPGGA,204002.8,3348.28832,N,11646.81958,W,2,07,1.4,1622.8,M,-30.8,M,,*5C
$GPGSA,A,3,08,,13,19,23,27,28,,48,,,,3.3,1.4,3.0*34
$GPGSV,3,3,09,48,47,208,50*40
$GPRMC,204003.0,A,3348.28829,N,11646.81958,W,000.5,182.3,300806,013.1,E,D*18
$GPGGA,204003.0,3348.28829,N,11646.81958,W,2,07,1.4,1622.8,M,-30.8,M,,*5F
$GPGSA,A,3,08,,13,19,23,27,28,,48,,,,3.3,1.4,3.0*34
$GPGSV,3,1,09,08,39,299,43,10,16,312,00,13,73,128,50,19,36,092,48*71
$GPRMC,204003.2,A,3348.28847,N,11646.81950,W,000.5,184.7,300806,013.1,E,D*18
$GPGGA,204003.2,3348.28847,N,11646.81950,W,2,07,1.4,1623.3,M,-30.8,M,,*57
$GPGSA,A,3,08,,13,19,23,27,28,,48,,,,3.3,1.4,3.0*34
$GPGSV,3,2,09,23,36,137,50,27,59,335,50,28,31,228,47,35,42,221,43*79
$GPRMC,204003.4,A,3348.28844,N,11646.81950,W,000.5,184.7,300806,013.1,E,D*1D
$GPGGA,204003.4,3348.28844,N,11646.81950,W,2,07,1.4,1623.3,M,-30.8,M,,*52
$GPGSA,A,3,08,,13,19,23,27,28,,48,,,,3.3,1.4,3.0*34
$GPGSV,3,3,09,48,47,208,51*41
$GPRMC,204003.6,A,3348.28841,N,11646.81950,W,000.5,184.7,300806,013.1,E,D*1A
$GPGGA,204003.6,3348.28841,N,11646.81950,W,2,07,1.4,1623.3,M,-30.8,M,,*55
$GPGSA,A,3,08,,13,19,23,27,28,,48,,,,3.3,1.4,3.0*34
$GPGSV,3,1,09,08,39,299,43,10,16,312,00,13,73,128,50,19,36,092,48*71
$GPRMC,204003.8,A,3348.28838,N,11646.81950,W,000.5,184.7,300806,013.1,E,D*1A
$GPGGA,204003.8,3348.28838,N,11646.81950,W,2,07,1.4,1623.3,M,-30.8,M,,*55
$GPGSA,A,3,08,,13,19,23,27,28,,48,,,,3.3,1.4,3.0*34
$GPGSV,3,2,09,23,36,137,50,27,59,335,50,28,31,228,47,35,42,221,43*79
$GPRMC,204004.0,A,3348.28836,N,11646.81951,W,000.5,184.7,300806,013.1,E,D*1A
$GPGGA,204004.0,3348.28836,N,11646.81951,W,2,07,1.4,1623.3,M,-30.8,M,,*55
$GPGSA,A,3,08,,13,19,23,27,28,,48,,,,3.3,1.4,3.0*34
$GPGSV,3,3,09,48,47,208,51*41
$GPRMC,204004.2,A,3348.28851,N,11646.81946,W,000.5,185.1,300806,013.1,E,D*18
$GPGGA,204004.2,3348.28851,N,11646.81946,W,2,07,1.4,1622.4,M,-30.8,M,,*56
$GPGSA,A,3,08,,13,19,23,27,28,,48,,,,3.3,1.4,3.0*34
$GPGSV,3,1,09,08,39,299,43,10,16,312,00,13,73,128,50,19,36,092,48*71
$GPRMC,204004.4,A,3348.28848,N,11646.81946,W,000.5,185.1,300806,013.1,E,D*16
$GPGGA,204004.4,3348.28848,N,11646.81946,W,2,07,1.4,1622.4,M,-30.8,M,,*58
$GPGSA,A,3,08,,13,19,23,27,28,,48,,,,3.3,1.4,3.0*34
$GPGSV,3,2,09,23,36,137,49,27,59,335,50,28,31,228,47,35,42,221,43*71
$GPRMC,204004.6,A,3348.28846,N,11646.81946,W,000.5,185.1,300806,013.1,E,D*1A
$GPGGA,204004.6,3348.28846,N,11646.81946,W,2,07,1.4,1622.4,M,-30.8,M,,*54
$GPGSA,A,3,08,,13,19,23,27,28,,48,,,,3.3,1.4,3.0*34
$GPGSV,3,3,09,48,47,208,51*41
$GPRMC,204004.8,A,3348.28843,N,11646.81947,W,000.5,185.1,300806,013.1,E,D*10
$GPGGA,204004.8,3348.28843,N,11646.81947,W,2,07,1.4,1622.4,M,-30.8,M,,*5E
$GPGSA,A,3,08,,13,19,23,27,28,,48,,,,3.3,1.4,3.0*34
$GPGSV,3,1,09,08,39,299,43,10,16,312,00,13,73,128,50,19,36,092,48*71
$GPRMC,204005.0,A,3348.28841,N,11646.81947,W,000.5,185.1,300806,013.1,E,D*1B
$GPGGA,204005.0,3348.28841,N,11646.81947,W,2,07,1.4,1622.4,M,-30.8,M,,*55
$GPGSA,A,3,08,,13,19,23,27,28,,48,,,,3.3,1.4,3.0*34
$GPGSV,3,2,09,23,36,137,50,27,59,335,49,28,31,228,47,35,42,221,44*76
$GPRMC,204005.2,A,3348.28855,N,11646.81938,W,000.4,172.4,300806,013.1,E,D*18
$GPGGA,204005.2,3348.28855,N,11646.81938,W,2,07,1.2,1622.4,M,-30.8,M,,*5C
$GPGSA,A,3,08,,13,19,23,27,28,,48,,,,3.0,1.2,2.7*37
$GPGSV,3,3,09,48,47,208,51*41
$GPRMC,204005.4,A,3348.28853,N,11646.81938,W,000.4,172.4,300806,013.1,E,D*18
$GPGGA,204005.4,3348.28853,N,11646.81938,W,2,07,1.2,1622.4,M,-30.8,M,,*5C
$GPGSA,A,3,08,,13,19,23,27,28,,48,,,,3.0,1.2,2.7*37
$GPGSV,3,1,09,08,39,299,43,10,16,312,00,13,73,128,49,19,36,092,49*78
$GPRMC,204005.6,A,3348.28850,N,11646.81938,W,000.4,172.4,300806,013.1,E,D*19
$GPGGA,204005.6,3348.28850,N,11646.81938,W,2,07,1.2,1622.4,M,-30.8,M,,*5D
$GPGSA,A,3,08,,13,19,23,27,28,,48,,,,3.0,1.2,2.7*37
$GPGSV,3,2,09,23,36,137,50,27,59,335,49,28,31,228,47,35,42,221,44*76
$GPRMC,204005.8,A,3348.28848,N,11646.81937,W,000.4,172.4,300806,013.1,E,D*11
$GPGGA,204005.8,3348.28848,N,11646.81937,W,2,07,1.2,1622.4,M,-30.8,M,,*55
$GPGSA,A,3,08,,13,19,23,27,28,,48,,,,3.0,1.2,2.7*37
$GPGSV,3,3,09,48,47,208,51*41
$GPRMC,204006.0,A,3348.28846,N,11646.81937,W,000.4,172.4,300806,013.1,E,D*14
$GPGGA,204006.0,3348.28846,N,11646.81937,W,2,07,1.2,1622.4,M,-30.8,M,,*50
$GPGSA,A,3,08,,13,19,23,27,28,,48,,,,3.0,1.2,2.7*37
$GPGSV,3,1,09,08,39,299,44,10,16,312,00,13,73,128,50,19,36,092,49*77
$GPRMC,204006.2,A,3348.28861,N,11646.81933,W,000.3,171.1,300806,013.1,E,D*16
$GPGGA,204006.2,3348.28861,N,11646.81933,W,2,07,1.2,1622.2,M,-30.8,M,,*55
$GPGSA,A,3,08,,13,19,23,27,28,,48,,,,3.0,1.2,2.7*37
$GPGSV,3,2,09,23,36,137,49,27,59,335,49,28,31,228,47,35,42,221,44*7E
$GPRMC,204006.4,A,3348.28859,N,11646.81932,W,000.3,171.1,300806,013.1,E,D*1A
$GPGGA,204006.4,3348.28859,N,11646.81932,W,2,07,1.2,1622.2,M,-30.8,M,,*59
$GPGSA,A,3,08,,13,19,23,27,28,,48,,,,3.0,1.2,2.7*37
$GPGSV,3,3,09,48,47,208,50*40
$GPRMC,204006.6,A,3348.28858,N,11646.81932,W,000.3,171.1,300806,013.1,E,D*19
$GPGGA,204006.6,3348.28858,N,11646.81932,W,2,07,1.2,1622.2,M,-30.8,M,,*5A
$GPGSA,A,3,08,,13,19,23,27,28,,48,,,,3.0,1.2,2.7*37
$GPGSV,3,1,09,08,39,299,44,10,16,312,00,13,73,128,50,19,36,092,49*77
$GPRMC,204006.8,A,3348.28856,N,11646.81932,W,000.3,171.1,300806,013.1,E,D*19
$GPGGA,204006.8,3348.28856,N,11646.81932,W,2,07,1.2,1622.2,M,-30.8,M,,*5A
$GPGSA,A,3,08,,13,19,23,27,28,,48,,,,3.0,1.2,2.7*37
$GPGSV,3,2,09,23,36,137,49,27,59,335,49,28,31,228,47,35,42,221,44*7E
$GPRMC,204007.0,A,3348.28854,N,11646.81932,W,000.3,171.1,300806,013.1,E,D*12
$GPGGA,204007.0,3348.28854,N,11646.81932,W,2,07,1.2,1622.2,M,-30.8,M,,*51
$GPGSA,A,3,08,,13,19,23,27,28,,48,,,,3.0,1.2,2.7*37
$GPGSV,3,3,09,48,47,208,50*40
$GPRMC,204007.2,A,3348.28872,N,11646.81926,W,000.3,169.2,300806,013.1,E,D*1B
$GPGGA,204007.2,3348.28872,N,11646.81926,W,2,07,1.2,1622.1,M,-30.8,M,,*51
$GPGSA,A,3,08,,13,19,23,27,28,,48,,,,3.0,1.2,2.7*37
$GPGSV,3,1,09,08,39,299,45,10,16,312,00,13,73,128,50,19,36,092,49*76
$GPRMC,204007.4,A,3348.28871,N,11646.81926,W,000.3,169.2,300806,013.1,E,D*1E
$GPGGA,204007.4,3348.28871,N,11646.81926,W,2,07,1.2,1622.1,M,-30.8,M,,*54
$GPGSA,A,3,08,,13,19,23,27,28,,48,,,,3.0,1.2,2.7*37
$GPGSV,3,2,09,23,36,137,48,27,59,335,48,28,31,228,48,35,42,221,44*71
$GPRMC,204007.6,A,3348.28870,N,11646.81926,W,000.3,169.2,300806,013.1,E,D*1D
$GPGGA,204007.6,3348.28870,N,11646.81926,W,2,07,1.2,1622.1,M,-30.8,M,,*57
$GPGSA,A,3,08,,13,19,23,27,28,,48,,,,3.0,1.2,2.7*37
$GPGSV,3,3,09,48,47,208,50*40
